stat_date,adcode,lng,lat,province,city,district,formatted_address,skycon,astro_sunrise,astro_sunset,cloudrate_avg,cloudrate_max,cloudrate_min,dswrf_avg,dswrf_max,dswrf_min,temperature_avg,temperature_max,temperature_min,precipitation_avg,precipitation_max,precipitation_min,pressure_avg,pressure_max,pressure_min,wind_direction_avg,wind_direction_max,wind_direction_min,wind_speed_avg,wind_speed_max,wind_speed_min,humidity_avg,humidity_max,humidity_min,visibility_avg,visibility_max,visibility_min,pm25_avg,pm25_max,pm25_min,life_index_carwashing_desc,life_index_carwashing_index,life_index_coldrisk_desc,life_index_coldrisk_index,life_index_comfort_desc,life_index_comfort_index,life_index_dressing_desc,life_index_dressing_index,life_index_ultraviolet_desc,life_index_ultraviolet_index,skycon_desc,precipitation_avg_desc,precipitation_max_desc,precipitation_min_desc,cloudrate_avg_desc,cloudrate_max_desc,cloudrate_min_desc,pm25_avg_desc,pm25_max_desc,pm25_min_desc,wind_direction_avg_dec,wind_direction_max_dec,wind_direction_min_dec,wind_speed_avg_desc,wind_speed_max_desc,wind_speed_min_desc,temperature_08h_20h_avg,temperature_08h_20h_max,temperature_08h_20h_min,temperature_20h_32h_avg,temperature_20h_32h_max,temperature_20h_32h_min,ds
20220818,110000,116.407526,39.90403,北京市,北京市,\N,北京市,HEAVY_RAIN,05:28,19:07,0.89,1,0.28,19.8,76.1,0,25.33,27,24,2.3,8.78,0,99518.72,99887.44,99136.73,178.38,205.17,277.72,8.53,13.72,2.89,0.94,0.98,0.77,11.39,20.1,2.95,7,18,3,较不适宜,3,易发,3,热,3,热,3,最弱,1,大雨,暴雨,暴雨,无雨,多云,多云,多云,\N,\N,\N,南(S),南西南(SSW),西(W),2级(清风),3级(树叶摇摆),1级(微风徐徐),\N,\N,\N,\N,\N,\N,20220818
20220818,120000,117.200983,39.084158,天津市,天津市,\N,天津市,LIGHT_RAIN,05:26,19:03,0.97,1,0.3,75.9,283.5,0,24.92,28,23,0.31,4.65,0,100128.69,100480,99626.93,183.22,217.87,85.17,11.4,21.36,3.94,0.84,0.96,0.71,20.38,28,2.27,21,29,15,较不适宜,3,易发,3,热,3,热,3,最弱,1,小雨,中雨,暴雨,无雨,多云,多云,多云,\N,\N,\N,南(S),西南(SW),东(E),2级(清风),4级(树枝摇动),1级(微风徐徐),\N,\N,\N,\N,\N,\N,20220818
20220818,130200,118.180193,39.630867,河北省,唐山市,\N,河北省唐山市,LIGHT_RAIN,05:22,19:00,0.95,1,0.3,35.8,193.1,0,24.79,27,24,0.28,1.12,0,99976.49,100328.03,99486.15,173.11,190.33,282.67,11.75,24.88,1.28,0.91,0.97,0.73,17.27,32.06,6.78,28,31,26,较不适宜,3,易发,3,热,3,热,3,最弱,1,小雨,中雨,暴雨,无雨,多云,多云,多云,\N,\N,\N,南(S),南(S),西西北(WNW),2级(清风),4级(树枝摇动),1级(微风徐徐),\N,\N,\N,\N,\N,\N,20220818
20220818,130100,114.514859,38.042306,河北省,石家庄市,\N,河北省石家庄市,LIGHT_RAIN,05:39,19:12,0.96,1,0.3,92.3,259.1,0,26.5,29,25,0.23,2.48,0,99229.76,99587.99,98814.26,338.55,352.93,57.54,4.66,11.9,0.51,0.83,0.99,0.72,15.22,23.67,4.83,34,41,24,较不适宜,3,易发,3,热,3,很热,2,最弱,1,小雨,小雨,暴雨,无雨,多云,多云,多云,\N,\N,\N,北西北(NNW),\N,东东北(ENE),1级(微风徐徐),2级(清风),0级(无风),\N,\N,\N,\N,\N,\N,20220818
20220818,360400,116.00193,29.705077,江西省,九江市,\N,江西省九江市,PARTLY_CLOUDY_DAY,05:45,18:54,0.41,0.9,0.05,306.5,774.2,0,33.5,39,28,0,0,0,99333.81,99477.47,99157.47,136.95,138.63,91.69,6.85,10.68,3.49,0.58,0.79,0.39,24.25,29.71,20.17,16,22,10,适宜,1,极易发,4,闷热,0,极热,1,中等,3,多云（白天）,无雨,无雨,无雨,多云,多云,晴,\N,\N,\N,东南(SE),东南(SE),东(E),2级(清风),2级(清风),1级(微风徐徐),\N,\N,\N,\N,\N,\N,20220818
20220818,220100,125.323544,43.817071,吉林省,长春市,\N,吉林省长春市,LIGHT_RAIN,04:46,18:39,0.66,1,0.01,211.8,610,0,24.02,29,19,0.04,0.9,0,97718.83,97926.41,97360.1,208.4,221.72,216.14,19.29,26.02,9.66,0.87,0.95,0.78,15.74,22.39,9.91,15,24,11,较不适宜,3,极易发,4,温暖,4,温暖,4,最弱,1,小雨,小雨,暴雨,无雨,多云,多云,晴,\N,\N,\N,南西南(SSW),西南(SW),西南(SW),3级(树叶摇摆),4级(树枝摇动),2级(清风),\N,\N,\N,\N,\N,\N,20220818
20220818,220200,126.549576,43.837883,吉林省,吉林市,\N,吉林市,LIGHT_RAIN,04:41,18:34,0.7,1,0,257.8,689.6,0,24.12,29,19,0.08,0.71,0,97251.45,97420.07,96927.82,199.24,219.42,163.32,12.48,20,6.16,0.84,0.93,0.68,18.71,31.4,9.01,10,14,7,较不适宜,3,极易发,4,温暖,4,热,3,最弱,1,小雨,小雨,暴雨,无雨,多云,多云,晴,\N,\N,\N,南西南(SSW),西南(SW),南东南(SSE),3级(树叶摇摆),4级(树枝摇动),2级(清风),\N,\N,\N,\N,\N,\N,20220818
20220818,652800,86.145298,41.764115,新疆维吾尔自治区,巴音郭楞蒙古自治州,\N,新疆维吾尔自治区巴音郭楞蒙古自治州,LIGHT_RAIN,07:26,21:12,0.14,0.96,0,269.6,846.2,0,20.71,29,14,0.04,0.53,0,89012.54,89236.82,88759.66,230.23,235.65,154.79,12.41,22.89,1.36,0.48,0.7,0.27,33.53,40.07,26.16,22,26,17,较不适宜,3,极易发,4,温暖,4,温暖,4,强,4,小雨,小雨,暴雨,无雨,晴,多云,晴,\N,\N,\N,西南(SW),西南(SW),南东南(SSE),3级(树叶摇摆),4级(树枝摇动),1级(微风徐徐),\N,\N,\N,\N,\N,\N,20220818
20220818,220300,124.350398,43.166419,吉林省,四平市,\N,吉林省四平市,PARTLY_CLOUDY_DAY,04:51,18:41,0.78,1,0,258.3,665.4,0,23.75,29,18,0,0,0,98094.15,98329.04,97689.04,204.68,205.93,201.86,22.46,29.65,10.95,0.86,0.95,0.75,17.77,22.09,13.51,17,29,14,较不适宜,3,极易发,4,温暖,4,温暖,4,最弱,1,多云（白天）,无雨,无雨,无雨,多云,多云,晴,\N,\N,\N,南西南(SSW),南西南(SSW),南西南(SSW),4级(树枝摇动),\N,2级(清风),\N,\N,\N,\N,\N,\N,20220818
20220818,220400,125.143532,42.887918,吉林省,辽源市,\N,吉林省辽源市,PARTLY_CLOUDY_DAY,04:48,18:38,0.78,1,0.01,244.1,682.1,0,23.67,29,19,0,0,0,96642.86,96825.19,96265.19,210.04,232.3,215.32,16.01,24.03,7.15,0.85,0.95,0.73,20.37,33.69,10.12,17,27,13,较不适宜,3,极易发,4,温暖,4,温暖,4,最弱,1,多云（白天）,无雨,无雨,无雨,多云,多云,晴,\N,\N,\N,南西南(SSW),西南(SW),西南(SW),3级(树叶摇摆),4级(树枝摇动),2级(清风),\N,\N,\N,\N,\N,\N,20220818
20220818,360300,113.854556,27.622768,江西省,萍乡市,\N,江西省萍乡市,PARTLY_CLOUDY_DAY,05:56,19:00,0.5,0.99,0.08,284,780.9,0,33.94,39,29,0,0,0,97203.51,97398.45,96976.19,133.75,155.43,91.25,5.76,12.56,1.93,0.52,0.71,0.29,20.66,26.53,14.52,19,24,16,适宜,1,极易发,4,闷热,0,极热,1,强,4,多云（白天）,无雨,无雨,无雨,多云,多云,晴,\N,\N,\N,东南(SE),南东南(SSE),东(E),1级(微风徐徐),3级(树叶摇摆),1级(微风徐徐),\N,\N,\N,\N,\N,\N,20220818
20220818,220500,125.939697,41.728401,吉林省,通化市,\N,吉林省通化市,PARTLY_CLOUDY_DAY,04:47,18:32,0.74,1,0,278.7,747.5,0,23.33,28,19,0,0,0,94324.38,94437.3,94037.3,193.85,227.74,100.16,7.82,15.24,1.87,0.83,0.96,0.6,17.24,29.75,9.72,16,20,14,较不适宜,3,极易发,4,热,3,热,3,弱,2,多云（白天）,无雨,无雨,无雨,多云,多云,晴,\N,\N,\N,南西南(SSW),西南(SW),东(E),2级(清风),3级(树叶摇摆),1级(微风徐徐),\N,\N,\N,\N,\N,\N,20220818
20220818,220600,126.423587,41.939994,吉林省,白山市,\N,吉林省白山市,PARTLY_CLOUDY_DAY,04:45,18:31,0.63,1,0,285.7,757.4,0,21.62,28,17,0,0,0,92593.58,92734.22,92358.67,209.3,247.62,140.75,6.75,15.09,1.71,0.8,0.97,0.47,18.21,32.51,9.94,14,17,12,较不适宜,3,极易发,4,热,3,温暖,4,弱,2,多云（白天）,无雨,无雨,无雨,多云,多云,晴,\N,\N,\N,南西南(SSW),西西南(WSW),东南(SE),2级(清风),3级(树叶摇摆),1级(微风徐徐),\N,\N,\N,\N,\N,\N,20220818
20220818,220700,124.825117,45.141789,吉林省,松原市,\N,吉林省松原市,LIGHT_RAIN,04:45,18:43,0.77,1,0.05,147.8,495.7,0,25.04,28,21,0.26,4.47,0,98410.16,98682.67,98042.67,202.5,209.36,200.99,17.08,29.05,5.02,0.82,0.97,0.7,14.45,30.26,3.27,7,12,3,较不适宜,3,易发,3,温暖,4,温暖,4,最弱,1,小雨,中雨,暴雨,无雨,多云,多云,晴,\N,\N,\N,南西南(SSW),南西南(SSW),南西南(SSW),3级(树叶摇摆),\N,1级(微风徐徐),\N,\N,\N,\N,\N,\N,20220818
20220818,220800,122.839024,45.619641,吉林省,白城市,\N,吉林省白城市,LIGHT_RAIN,04:52,18:52,0.87,1,0.05,190,474.2,0,22.38,28,16,0.09,1.41,0,98209.47,98312.82,97954.53,79.02,190.67,55.95,16.58,23.99,9.98,0.71,0.94,0.54,12.36,17.17,2.86,9,18,3,较不适宜,3,极易发,4,热,3,温暖,4,最弱,1,小雨,小雨,暴雨,无雨,多云,多云,晴,\N,\N,\N,东(E),南(S),东北(NE),3级(树叶摇摆),4级(树枝摇动),2级(清风),\N,\N,\N,\N,\N,\N,20220818
20220818,360200,117.178419,29.268835,江西省,景德镇市,\N,江西省景德镇市,PARTLY_CLOUDY_DAY,05:41,18:49,0.56,1,0.05,289.2,755.8,0,33.02,39,28,0,0,0,99103.81,99295.22,98896.95,116.72,148.3,146.43,5.29,10.21,2.45,0.65,0.92,0.34,21.12,29.55,14.08,20,30,15,适宜,1,极易发,4,闷热,0,极热,1,弱,2,多云（白天）,无雨,无雨,无雨,多云,多云,晴,\N,\N,\N,东东南(ESE),南东南(SSE),南东南(SSE),1级(微风徐徐),2级(清风),1级(微风徐徐),\N,\N,\N,\N,\N,\N,20220818
20220818,222400,129.508946,42.891253,吉林省,延边朝鲜族自治州,\N,吉林省延边朝鲜族自治州,PARTLY_CLOUDY_DAY,04:31,18:20,0.52,1,0,278.9,757,0,23.54,29,18,0,0,0,96336.87,96528.25,96128.25,177.48,144.23,230.37,3.15,5.81,0.42,0.78,0.95,0.52,15.85,29.52,5.19,6,10,3,较不适宜,3,极易发,4,热,3,热,3,弱,2,多云（白天）,无雨,无雨,无雨,多云,多云,晴,\N,\N,\N,南(S),东南(SE),西南(SW),1级(微风徐徐),1级(微风徐徐),0级(无风),\N,\N,\N,\N,\N,\N,20220818
20220818,230100,126.534967,45.803775,黑龙江省,哈尔滨市,\N,黑龙江省哈尔滨市,LIGHT_RAIN,04:37,18:38,0.7,1,0,168.8,587,0,25.02,29,21.33,0.14,3.19,0,98628.25,98879.64,98319.64,205.15,210.1,227.06,15.63,26.7,6.24,0.81,0.97,0.57,16.42,27.47,10.01,6,14,3,较不适宜,3,极易发,4,温暖,4,温暖,4,最弱,1,小雨,小雨,暴雨,无雨,多云,多云,晴,\N,\N,\N,南西南(SSW),南西南(SSW),西南(SW),3级(树叶摇摆),4级(树枝摇动),2级(清风),\N,\N,\N,\N,\N,\N,20220818
20220818,230200,123.918186,47.354348,黑龙江省,齐齐哈尔市,\N,黑龙江省齐齐哈尔市,LIGHT_RAIN,04:44,18:52,0.87,1,0.01,218.4,554.3,0,22.06,27,17,0.36,4.17,0,98274.08,98366.61,98157.96,27.99,186.86,79.06,15.85,24.63,8.35,0.63,0.89,0.43,18.95,25.74,11.22,11,20,3,较不适宜,3,极易发,4,热,3,温暖,4,最弱,1,小雨,大雨,暴雨,无雨,多云,多云,晴,\N,\N,\N,北东北(NNE),南(S),东(E),3级(树叶摇摆),4级(树枝摇动),2级(清风),\N,\N,\N,\N,\N,\N,20220818
20220818,230300,130.969333,45.295075,黑龙江省,鸡西市,\N,黑龙江省鸡西市,PARTLY_CLOUDY_DAY,04:20,18:19,0.53,1,0,276.8,767.9,0,23.77,29,19,0,0,0,96999.2,97236.82,96758.59,237.41,243.73,246.75,8.68,16.25,2.27,0.68,0.91,0.41,21.99,30.55,11.03,9,14,7,较不适宜,3,极易发,4,热,3,热,3,弱,2,多云（白天）,无雨,无雨,无雨,多云,多云,晴,\N,\N,\N,西西南(WSW),西西南(WSW),西西南(WSW),2级(清风),3级(树叶摇摆),1级(微风徐徐),\N,\N,\N,\N,\N,\N,20220818
20220818,230400,130.297964,47.349916,黑龙江省,鹤岗市,\N,黑龙江省鹤岗市,LIGHT_RAIN,04:18,18:26,0.49,1,0,259.6,750,0,22.83,29,18,0.37,5.33,0,98255.19,98547.59,97987.59,241.42,224.67,228.62,9.69,21.22,3.93,0.65,0.96,0.36,22.19,35.79,3.12,6,14,3,较不适宜,3,极易发,4,热,3,热,3,中等,3,小雨,大雨,暴雨,无雨,多云,多云,晴,\N,\N,\N,西西南(WSW),西南(SW),西南(SW),2级(清风),4级(树枝摇动),1级(微风徐徐),\N,\N,\N,\N,\N,\N,20220818
20220818,360100,115.858197,28.682892,江西省,南昌市,\N,江西省南昌市,PARTLY_CLOUDY_DAY,05:47,18:53,0.63,0.99,0.05,295.4,774.1,0,35.35,39,31,0,0,0,99573.67,99725.56,99370.94,145.63,69.6,197.75,6.1,7.78,2.95,0.53,0.74,0.34,23.04,32.37,14.1,23,36,13,适宜,1,极易发,4,闷热,0,极热,1,弱,2,多云（白天）,无雨,无雨,无雨,多云,多云,晴,\N,\N,\N,东南(SE),东东北(ENE),南西南(SSW),2级(清风),2级(清风),1级(微风徐徐),\N,\N,\N,\N,\N,\N,20220818
20220818,230500,131.159133,46.646508,黑龙江省,双鸭山市,\N,黑龙江省双鸭山市,MODERATE_RAIN,04:16,18:21,0.48,1,0,285.3,765.4,0,24.58,29,20,0.67,7.49,0,97665.26,97933.24,97474.32,223.55,218.5,233.79,12.77,21.11,3.64,0.6,0.85,0.38,17.24,28.84,3.15,5,12,3,较不适宜,3,极易发,4,温暖,4,热,3,弱,2,中雨,暴雨,暴雨,无雨,多云,多云,晴,\N,\N,\N,西南(SW),西南(SW),西南(SW),3级(树叶摇摆),4级(树枝摇动),1级(微风徐徐),\N,\N,\N,\N,\N,\N,20220818
20220818,230600,125.103784,46.589309,黑龙江省,大庆市,\N,黑龙江省大庆市,HEAVY_RAIN,04:41,18:45,0.78,1,0.04,155.4,476.4,0,23.04,28,17,2.21,36.54,0,98333.01,98451.42,98160,212.51,219.35,42.18,16.12,26.52,6.59,0.74,0.94,0.61,17.09,29.25,2.1,7,16,3,较不适宜,3,极易发,4,热,3,温暖,4,最弱,1,大雨,暴雨,暴雨,无雨,多云,多云,晴,\N,\N,\N,南西南(SSW),西南(SW),东北(NE),3级(树叶摇摆),4级(树枝摇动),2级(清风),\N,\N,\N,\N,\N,\N,20220818
20220818,350900,119.547932,26.665617,福建省,宁德市,\N,福建省宁德市,PARTLY_CLOUDY_DAY,05:34,18:36,0.25,1,0,311,808.3,0,31.81,36,28,0,0,0,97417.43,97522.82,97282.82,92.05,111.8,143.31,5.31,11.38,0.4,0.81,0.97,0.55,19.34,26.96,11.39,16,22,12,适宜,1,极易发,4,闷热,0,很热,2,强,4,多云（白天）,无雨,无雨,无雨,多云,多云,晴,\N,\N,\N,东(E),东东南(ESE),东南(SE),1级(微风徐徐),2级(清风),0级(无风),\N,\N,\N,\N,\N,\N,20220818
20220818,230700,128.841147,47.727536,黑龙江省,伊春市,\N,黑龙江省伊春市,LIGHT_RAIN,04:23,18:33,0.63,1,0,174.6,697.9,0,21.08,27,15,0.06,0.45,0,96269.58,96524.48,96051.67,226.16,231.29,44.01,8.41,21.1,0.78,0.8,0.99,0.43,19.55,33.42,8.06,6,12,3,较不适宜,3,极易发,4,热,3,温暖,4,弱,2,小雨,小雨,大雨,无雨,多云,多云,晴,\N,\N,\N,西南(SW),西南(SW),东北(NE),2级(清风),4级(树枝摇动),0级(无风),\N,\N,\N,\N,\N,\N,20220818
20220818,230800,130.318917,46.799922,黑龙江省,佳木斯市,\N,黑龙江省佳木斯市,MODERATE_RAIN,04:19,18:25,0.55,1,0,281.3,747.1,0,23.62,29,17,0.45,5.3,0,98725.17,98984.66,98488.68,223.56,225.58,125.69,15.46,26.67,2.06,0.62,0.9,0.35,20.19,36.69,4.63,5,13,3,较不适宜,3,极易发,4,温暖,4,温暖,4,最弱,1,中雨,大雨,暴雨,无雨,多云,多云,晴,\N,\N,\N,西南(SW),西南(SW),东南(SE),3级(树叶摇摆),4级(树枝摇动),1级(微风徐徐),\N,\N,\N,\N,\N,\N,20220818
20220818,230900,131.003138,45.771726,黑龙江省,七台河市,\N,黑龙江省七台河市,LIGHT_RAIN,04:19,18:20,0.54,1,0,272.8,765.9,0,25.23,29,20,0.05,0.65,0,97209.04,97440.26,96960.26,204.08,206.14,213.48,10.29,19.04,5.66,0.63,0.88,0.37,22.2,35.08,9.2,7,14,3,较不适宜,3,极易发,4,热,3,热,3,弱,2,小雨,小雨,暴雨,无雨,多云,多云,晴,\N,\N,\N,南西南(SSW),南西南(SSW),南西南(SSW),2级(清风),3级(树叶摇摆),1级(微风徐徐),\N,\N,\N,\N,\N,\N,20220818
20220818,350800,117.017536,25.075123,福建省,龙岩市,\N,福建省龙岩市,PARTLY_CLOUDY_DAY,05:46,18:44,0.53,1,0,244.7,789.2,0,29.04,36,24,0,0,0,92841.48,92936.38,92698.62,143.05,161.46,124.68,4.58,9.01,1.92,0.79,0.97,0.44,11.82,17.73,3.72,13,17,9,适宜,1,极易发,4,闷热,0,很热,2,强,4,多云（白天）,无雨,无雨,无雨,多云,多云,晴,\N,\N,\N,东南(SE),南东南(SSE),东南(SE),1级(微风徐徐),2级(清风),1级(微风徐徐),\N,\N,\N,\N,\N,\N,20220818
20220818,231000,129.633168,44.551653,黑龙江省,牡丹江市,\N,黑龙江省牡丹江市,PARTLY_CLOUDY_DAY,04:27,18:23,0.58,1,0,251.2,735.1,0,24.62,30,20,0.01,0.22,0,96057.4,96253.6,95861.32,214.44,217.75,200.33,9.23,17.18,5.21,0.67,0.85,0.48,20.04,34.84,12.6,6,10,4,较不适宜,3,极易发,4,热,3,热,3,最弱,1,多云（白天）,无雨,小雨,无雨,多云,多云,晴,\N,\N,\N,西南(SW),西南(SW),南西南(SSW),2级(清风),3级(树叶摇摆),1级(微风徐徐),\N,\N,\N,\N,\N,\N,20220818
20220818,231100,127.52856,50.245329,黑龙江省,黑河市,\N,黑龙江省黑河市,PARTLY_CLOUDY_DAY,04:23,18:44,0.72,1,0,165.4,607.5,0,20.92,27,14,0,0,0,98029.26,98200.53,97960.53,270.72,335.07,307.97,9.86,19.05,4.63,0.72,0.98,0.38,22.78,34.96,12.78,9,19,3,较不适宜,3,极易发,4,温暖,4,温暖,4,中等,3,多云（白天）,无雨,无雨,无雨,多云,多云,晴,\N,\N,\N,西(W),北西北(NNW),西北(NW),2级(清风),3级(树叶摇摆),1级(微风徐徐),\N,\N,\N,\N,\N,\N,20220818
20220818,231200,126.968887,46.653845,黑龙江省,绥化市,\N,黑龙江省绥化市,MODERATE_RAIN,04:33,18:38,0.69,1,0,176.8,613.8,0,22.77,28,16,1.3,19.35,0,98196.65,98438.43,97927.66,202.54,211.33,324.29,15.32,25.64,5.93,0.85,0.97,0.58,17.03,26.35,1.51,6,13,3,较不适宜,3,极易发,4,温暖,4,温暖,4,最弱,1,中雨,暴雨,暴雨,无雨,多云,多云,晴,\N,\N,\N,南西南(SSW),南西南(SSW),西北(NW),3级(树叶摇摆),4级(树枝摇动),1级(微风徐徐),\N,\N,\N,\N,\N,\N,20220818
20220818,232700,124.71108,52.335206,黑龙江省,大兴安岭地区,\N,黑龙江省大兴安岭地区,PARTLY_CLOUDY_DAY,04:28,19:01,0.33,1,0,284.9,711.1,0,17.52,26,9,0,0,0,94194.43,94415.56,94091.32,287.27,299.88,261.67,10.01,19.69,3.19,0.7,0.97,0.33,17.91,30.24,10,3,4,3,较不适宜,3,极易发,4,温暖,4,温暖,4,中等,3,多云（白天）,无雨,无雨,无雨,多云,多云,晴,\N,\N,\N,西西北(WNW),西西北(WNW),西(W),2级(清风),3级(树叶摇摆),1级(微风徐徐),\N,\N,\N,\N,\N,\N,20220818
20220818,310000,121.473701,31.230416,上海市,上海市,\N,上海市,HEAVY_RAIN,05:21,18:34,0.87,1,0.3,284.8,715.6,0,32.17,36,29,2.19,27.48,0,100470.31,100640,100326.27,132.19,141.3,102.54,10.34,18.35,4.15,0.7,0.92,0.43,10.56,21.11,1.95,20,31,13,较不适宜,3,易发,3,闷热,0,极热,1,最弱,1,大雨,暴雨,暴雨,无雨,多云,多云,多云,\N,\N,\N,东南(SE),东南(SE),东东南(ESE),2级(清风),3级(树叶摇摆),1级(微风徐徐),\N,\N,\N,\N,\N,\N,20220818
20220818,350700,118.177708,26.641768,福建省,南平市,\N,福建省南平市,PARTLY_CLOUDY_DAY,05:40,18:41,0.48,1,0,223.7,767.2,0,32.58,39,27,0,0,0,96337.07,96450.21,96197.1,132.85,136.15,133.89,4.42,6.14,2.72,0.73,0.96,0.41,16.44,25.3,11.05,12,21,8,适宜,1,极易发,4,闷热,0,极热,1,中等,3,多云（白天）,无雨,无雨,无雨,多云,多云,晴,\N,\N,\N,东南(SE),东南(SE),东南(SE),1级(微风徐徐),2级(清风),1级(微风徐徐),\N,\N,\N,\N,\N,\N,20220818
20220818,320100,118.796877,32.060255,江苏省,南京市,\N,江苏省南京市,PARTLY_CLOUDY_DAY,05:31,18:46,0.57,1,0.05,291.8,758.7,0,33.31,38,29,0,0,0,100123.81,100343.56,99916.51,122.24,127.37,101.93,11.59,15.53,8.63,0.71,0.96,0.4,20.66,31.61,9.27,15,25,8,适宜,1,极易发,4,闷热,0,极热,1,强,4,多云（白天）,无雨,无雨,无雨,多云,多云,晴,\N,\N,\N,东东南(ESE),东南(SE),东东南(ESE),2级(清风),3级(树叶摇摆),2级(清风),\N,\N,\N,\N,\N,\N,20220818
20220818,320200,120.31191,31.491169,江苏省,无锡市,\N,江苏省无锡市,LIGHT_RAIN,05:25,18:39,0.85,1,0.19,292.8,760,0,31.79,36,29,0.24,4.23,0,100400.77,100581.24,100240,123.92,109.65,107.43,12.62,15.65,9.77,0.73,0.91,0.55,9.98,22.61,0.24,22,27,17,较不适宜,3,易发,3,闷热,0,很热,2,最弱,1,小雨,小雨,暴雨,无雨,多云,多云,晴,\N,\N,\N,东南(SE),东东南(ESE),东东南(ESE),3级(树叶摇摆),3级(树叶摇摆),2级(清风),\N,\N,\N,\N,\N,\N,20220818
20220818,350600,117.647481,24.512948,福建省,漳州市,\N,福建省漳州市,PARTLY_CLOUDY_DAY,05:45,18:41,0.65,1,0.07,252.2,748.2,0,29.44,34,25,0,0,0,99365.16,99478.69,99236.99,121.42,130.18,348.65,5.65,13.62,0.56,0.74,0.93,0.5,16.48,25.6,8.96,12,19,8,较不适宜,3,极易发,4,闷热,0,很热,2,中等,3,多云（白天）,无雨,无雨,无雨,多云,多云,晴,\N,\N,\N,东东南(ESE),东南(SE),北西北(NNW),1级(微风徐徐),3级(树叶摇摆),0级(无风),\N,\N,\N,\N,\N,\N,20220818
20220818,320300,117.284124,34.205768,江苏省,徐州市,\N,江苏省徐州市,CLOUDY,05:34,18:55,0.86,1,0,279.3,723.7,0,32.33,35,30,0.02,0.35,0,99920.05,100170.92,99681.93,130.75,149.13,119.68,14.61,19.47,10.85,0.78,0.86,0.65,14.43,20.2,10.05,25,31,17,较不适宜,3,易发,3,闷热,0,极热,1,最弱,1,阴,无雨,大雨,无雨,多云,多云,晴,\N,\N,\N,东南(SE),南东南(SSE),东东南(ESE),3级(树叶摇摆),3级(树叶摇摆),2级(清风),\N,\N,\N,\N,\N,\N,20220818
20220818,320400,119.973987,31.810689,江苏省,常州市,\N,江苏省常州市,MODERATE_RAIN,05:26,18:41,0.68,1,0.12,292.1,771.1,0,32.33,36,30,0.52,10.19,0,100411.67,100637.98,100237.98,125.19,169.35,102.22,12.79,16.91,9.27,0.71,0.9,0.47,12.84,24.7,3.14,24,30,17,较不适宜,3,易发,3,闷热,0,极热,1,弱,2,中雨,暴雨,暴雨,无雨,多云,多云,晴,\N,\N,\N,东南(SE),南(S),东东南(ESE),3级(树叶摇摆),3级(树叶摇摆),2级(清风),\N,\N,\N,\N,\N,\N,20220818
20220818,320500,120.585315,31.298886,江苏省,苏州市,\N,江苏省苏州市,LIGHT_RAIN,05:24,18:38,0.88,1,0.09,288.1,730.8,0,31.71,36,29,0.03,0.24,0,100396.05,100597.61,100224.91,119.34,116.3,98.3,10.54,15.09,6.15,0.72,0.94,0.46,13.49,26.66,8.12,24,30,17,较不适宜,3,易发,3,闷热,0,很热,2,最弱,1,小雨,小雨,小雨,无雨,多云,多云,晴,\N,\N,\N,东东南(ESE),东东南(ESE),东(E),2级(清风),3级(树叶摇摆),2级(清风),\N,\N,\N,\N,\N,\N,20220818
20220818,320600,120.894291,31.980171,江苏省,南通市,\N,江苏省南通市,LIGHT_RAIN,05:22,18:37,0.85,1,0.09,296.5,767.8,0,30.99,34,28,0.18,2.43,0,100507.6,100640,100320,108.02,107.49,91.28,14.64,18.39,9.62,0.78,0.9,0.63,10.18,16.53,6.47,19,28,13,较不适宜,3,易发,3,闷热,0,很热,2,最弱,1,小雨,小雨,暴雨,无雨,多云,多云,晴,\N,\N,\N,东东南(ESE),东东南(ESE),东(E),3级(树叶摇摆),3级(树叶摇摆),2级(清风),\N,\N,\N,\N,\N,\N,20220818
20220818,320700,119.221611,34.596653,江苏省,连云港市,\N,江苏省连云港市,PARTLY_CLOUDY_DAY,05:25,18:48,0.77,1,0,276,744.7,0,28.83,33,27,0,0,0,100388.23,100618.16,100105.17,131.61,140.83,131.58,12.79,17.78,6.9,0.8,0.9,0.66,13.46,20.92,8.59,25,31,19,较不适宜,3,易发,3,闷热,0,很热,2,中等,3,多云（白天）,无雨,无雨,无雨,多云,多云,晴,\N,\N,\N,东南(SE),东南(SE),东南(SE),3级(树叶摇摆),3级(树叶摇摆),2级(清风),\N,\N,\N,\N,\N,\N,20220818
20220818,320800,119.015285,33.610353,江苏省,淮安市,\N,江苏省淮安市,PARTLY_CLOUDY_DAY,05:28,18:47,0.73,1,0,287.6,751.9,0,30.88,35,28,0,0,0,100350.15,100640,100084.89,125.62,121.44,147.26,14.58,19.16,10.02,0.74,0.89,0.51,13.57,20.33,8.12,34,41,30,较不适宜,3,易发,3,闷热,0,很热,2,中等,3,多云（白天）,无雨,无雨,无雨,多云,多云,晴,\N,\N,\N,东南(SE),东东南(ESE),南东南(SSE),3级(树叶摇摆),3级(树叶摇摆),2级(清风),\N,\N,\N,\N,\N,\N,20220818
20220818,350500,118.675675,24.874132,福建省,泉州市,\N,福建省泉州市,PARTLY_CLOUDY_DAY,05:40,18:37,0.59,1,0.01,279,735.3,0,30.75,35,27,0,0,0,100120.45,100222.63,100022.9,138.09,129.68,340.02,7.7,17.12,1.68,0.75,0.87,0.59,14.98,25.58,9.38,15,18,9,较不适宜,3,极易发,4,闷热,0,很热,2,弱,2,多云（白天）,无雨,无雨,无雨,多云,多云,晴,\N,\N,\N,东南(SE),东南(SE),北西北(NNW),2级(清风),3级(树叶摇摆),1级(微风徐徐),\N,\N,\N,\N,\N,\N,20220818
20220818,320900,120.163561,33.347382,江苏省,盐城市,\N,江苏省盐城市,CLOUDY,05:23,18:42,0.81,1,0.08,298.5,771.2,0,30.65,34,28,0,0,0,100541.2,100740.39,100320,118.13,110.37,124.95,15.72,21.46,8.93,0.76,0.89,0.56,12.49,23.74,0.13,31,37,28,适宜,1,易发,3,闷热,0,热,3,弱,2,阴,无雨,无雨,无雨,多云,多云,晴,\N,\N,\N,东东南(ESE),东东南(ESE),东南(SE),3级(树叶摇摆),4级(树枝摇动),2级(清风),\N,\N,\N,\N,\N,\N,20220818
20220818,321000,119.412966,32.39421,江苏省,扬州市,\N,江苏省扬州市,LIGHT_RAIN,05:28,18:44,0.6,1,0.05,264.9,753.5,0,32.52,37,29,0.23,5.24,0,100306.05,100546.17,100104.3,122.75,128.54,96.72,14.34,18.04,10.63,0.72,0.91,0.45,14.53,24.33,9.04,18,27,12,较不适宜,3,极易发,4,闷热,0,极热,1,强,4,小雨,小雨,暴雨,无雨,多云,多云,晴,\N,\N,\N,东东南(ESE),东南(SE),东(E),3级(树叶摇摆),3级(树叶摇摆),2级(清风),\N,\N,\N,\N,\N,\N,20220818
20220818,652901,80.260605,41.168779,新疆维吾尔自治区,阿克苏地区,\N,新疆维吾尔自治区阿克苏地区,CLEAR_DAY,07:51,21:34,0.17,0.87,0,276.3,875.3,0,21.02,29,14,0,0,0,88229.72,88393.83,87992.73,92.47,105.47,357.88,8.52,17.32,1.37,0.44,0.58,0.33,39.88,44.59,32.4,23,30,13,适宜,1,极易发,4,温暖,4,温暖,4,强,4,晴（白天）,无雨,无雨,无雨,晴,多云,晴,\N,\N,\N,东(E),东东南(ESE),\N,2级(清风),3级(树叶摇摆),1级(微风徐徐),\N,\N,\N,\N,\N,\N,20220818
20220818,350400,117.638678,26.263406,福建省,三明市,\N,福建省三明市,PARTLY_CLOUDY_DAY,05:43,18:43,0.57,1,0,231.7,738,0,31.96,39,26,0,0,0,94806.79,94946.83,94670.73,121.86,89.6,70.96,3.95,6.81,1.61,0.71,0.92,0.51,14.84,23.08,9.88,11,16,6,适宜,1,极易发,4,闷热,0,很热,2,中等,3,多云（白天）,无雨,无雨,无雨,多云,多云,晴,\N,\N,\N,东东南(ESE),东(E),东东北(ENE),1级(微风徐徐),2级(清风),1级(微风徐徐),\N,\N,\N,\N,\N,\N,20220818
20220818,321100,119.425836,32.187849,江苏省,镇江市,\N,江苏省镇江市,PARTLY_CLOUDY_DAY,05:28,18:44,0.55,1,0.06,272.8,752.4,0,32.32,37,29,0.02,0.49,0,100283.39,100504.58,100098.68,121.91,156.84,102.97,13.55,17.16,9.99,0.73,0.94,0.45,14.26,27.49,8.31,16,25,9,较不适宜,3,极易发,4,闷热,0,极热,1,中等,3,多云（白天）,无雨,暴雨,无雨,多云,多云,晴,\N,\N,\N,东东南(ESE),南东南(SSE),东东南(ESE),3级(树叶摇摆),3级(树叶摇摆),2级(清风),\N,\N,\N,\N,\N,\N,20220818
20220818,610200,108.945233,34.896756,陕西省,铜川市,\N,陕西省铜川市,PARTLY_CLOUDY_DAY,06:06,19:29,0.73,1,0.06,258.5,796.2,0,30.56,47.53,23.34,0,0,0,91285.69,91625.68,91064.09,49.83,326.61,186.51,10.39,25.4,3.43,0.66,0.89,0.37,25.55,40.51,14.42,24,30,20,适宜,1,极易发,4,闷热,0,很热,2,最弱,1,多云（白天）,无雨,无雨,无雨,多云,多云,晴,\N,\N,\N,东北(NE),北西北(NNW),南(S),2级(清风),4级(树枝摇动),1级(微风徐徐),\N,\N,\N,\N,\N,\N,20220818
20220818,321200,119.923116,32.455778,江苏省,泰州市,\N,江苏省泰州市,LIGHT_RAIN,05:25,18:42,0.63,1,0.06,269.7,761.6,0,30.58,34,28,0.38,5.59,0,100448.8,100705.85,100240,112.72,133.08,106.11,14.9,18.45,10.54,0.73,0.89,0.46,11.76,22.87,2.2,19,27,13,较不适宜,3,易发,3,闷热,0,很热,2,强,4,小雨,大雨,暴雨,无雨,多云,多云,晴,\N,\N,\N,东东南(ESE),东南(SE),东东南(ESE),3级(树叶摇摆),3级(树叶摇摆),2级(清风),\N,\N,\N,\N,\N,\N,20220818
20220818,321300,118.275198,33.963232,江苏省,宿迁市,\N,江苏省宿迁市,CLOUDY,05:30,18:51,0.86,1,0,264.4,731.6,0,31.71,35,29,0,0,0,100183.1,100418.64,99928.06,128.57,153.78,122.71,14.51,19.82,10.07,0.77,0.86,0.64,13.98,19.06,8.12,37,45,32,较不适宜,3,易发,3,闷热,0,很热,2,弱,2,阴,无雨,无雨,无雨,多云,多云,晴,\N,\N,\N,东南(SE),南东南(SSE),东东南(ESE),3级(树叶摇摆),3级(树叶摇摆),2级(清风),\N,\N,\N,\N,\N,\N,20220818
20220818,330100,120.15507,30.274084,浙江省,杭州市,\N,浙江省杭州市,PARTLY_CLOUDY_DAY,05:27,18:38,0.74,1,0.11,289.5,765.2,0,33.1,39,28,0,0,0,100120.81,100285.12,99962.2,119.59,81.99,231.26,6.66,14.76,1.57,0.67,0.9,0.41,20.95,28.44,13.99,14,21,9,适宜,1,极易发,4,闷热,0,极热,1,最弱,1,多云（白天）,无雨,无雨,无雨,多云,多云,晴,\N,\N,\N,东东南(ESE),东(E),西南(SW),2级(清风),3级(树叶摇摆),1级(微风徐徐),\N,\N,\N,\N,\N,\N,20220818
20220818,330112,119.718891,30.237881,浙江省,杭州市,\N,浙江省杭州市临安区,PARTLY_CLOUDY_DAY,05:29,18:40,0.64,1,0.05,280.7,742.4,0,31.94,38,27,0,0,0,98359.02,98508.95,98185.07,116.14,90.68,246.77,4.74,8.63,1.45,0.72,0.95,0.39,19,26.29,14.86,18,22,13,适宜,1,极易发,4,闷热,0,很热,2,最弱,1,多云（白天）,无雨,无雨,无雨,多云,多云,晴,\N,\N,\N,东东南(ESE),东(E),西西南(WSW),1级(微风徐徐),2级(清风),1级(微风徐徐),\N,\N,\N,\N,\N,\N,20220818
20220818,330200,121.550357,29.874556,浙江省,宁波市,\N,浙江省宁波市,PARTLY_CLOUDY_DAY,05:22,18:32,0.61,1,0.05,306.4,813.7,0,31.35,37,27,0.01,0.09,0,100040.31,100135.29,99887.26,169.09,165.62,184.85,12.43,23.06,4.41,0.71,0.94,0.4,18.57,29.98,11.49,16,21,12,较不适宜,3,极易发,4,闷热,0,很热,2,弱,2,多云（白天）,无雨,小雨,无雨,多云,多云,晴,\N,\N,\N,南(S),南东南(SSE),南(S),3级(树叶摇摆),4级(树枝摇动),1级(微风徐徐),\N,\N,\N,\N,\N,\N,20220818
20220818,350300,119.007777,25.454084,福建省,莆田市,\N,福建省莆田市,PARTLY_CLOUDY_DAY,05:38,18:37,0.52,1,0.01,276.1,716.9,0,30.85,35,27,0,0,0,98566.09,98651.82,98491.82,129.11,134.95,359.31,5.75,15.42,0.58,0.73,0.88,0.5,17.98,29.32,11.11,21,23,18,适宜,1,极易发,4,闷热,0,很热,2,中等,3,多云（白天）,无雨,无雨,无雨,多云,多云,晴,\N,\N,\N,东南(SE),东南(SE),\N,1级(微风徐徐),3级(树叶摇摆),0级(无风),\N,\N,\N,\N,\N,\N,20220818
20220818,330300,120.699366,27.994267,浙江省,温州市,\N,浙江省温州市,CLEAR_DAY,05:28,18:33,0.15,1,0,317.8,822.7,0,31.12,37,27,0,0.06,0,99293.42,99404.88,99166.35,133.23,133.16,78.29,7.78,16.62,0.72,0.7,0.85,0.5,20.7,30.24,14.19,28,38,21,较不适宜,3,极易发,4,闷热,0,很热,2,强,4,晴（白天）,无雨,小雨,无雨,晴,多云,晴,\N,\N,\N,东南(SE),东南(SE),东东北(ENE),2级(清风),3级(树叶摇摆),0级(无风),\N,\N,\N,\N,\N,\N,20220818
20220818,130400,114.538961,36.625657,河北省,邯郸市,\N,河北省邯郸市,CLOUDY,05:41,19:10,0.87,1,0,217.7,549.2,0,29.94,35,26,0,0,0,99279.64,99723.67,98877.26,183.59,182.52,277.38,14.9,23.16,4.87,0.77,0.91,0.61,22.8,32.47,14.84,18,33,10,较不适宜,3,极易发,4,闷热,0,很热,2,最弱,1,阴,无雨,无雨,无雨,多云,多云,晴,\N,\N,\N,南(S),南(S),西(W),3级(树叶摇摆),4级(树枝摇动),1级(微风徐徐),\N,\N,\N,\N,\N,\N,20220818
20220818,350200,118.089425,24.479833,福建省,厦门市,\N,福建省厦门市,PARTLY_CLOUDY_DAY,05:43,18:39,0.71,1,0.13,295.7,769.9,0,29.38,34,26,0,0,0,100264.15,100377.1,100163.41,122.12,132.27,38.54,6.93,17.25,0.42,0.78,0.84,0.68,13.37,20.33,8.86,13,19,8,较不适宜,3,极易发,4,闷热,0,很热,2,中等,3,多云（白天）,无雨,无雨,无雨,多云,多云,晴,\N,\N,\N,东东南(ESE),东南(SE),东北(NE),2级(清风),3级(树叶摇摆),0级(无风),\N,\N,\N,\N,\N,\N,20220818
20220818,330400,120.755486,30.746129,浙江省,嘉兴市,\N,浙江省嘉兴市,CLOUDY,05:24,18:36,0.85,1,0.3,286.5,737.5,0,32.33,37,28,0,0,0,100426.89,100560.03,100241.76,110.35,95.01,67.92,10.59,17.87,2.97,0.76,0.96,0.5,16.35,27.93,9.21,17,24,11,适宜,1,极易发,4,闷热,0,极热,1,最弱,1,阴,无雨,无雨,无雨,多云,多云,多云,\N,\N,\N,东东南(ESE),东(E),东东北(ENE),2级(清风),3级(树叶摇摆),1级(微风徐徐),\N,\N,\N,\N,\N,\N,20220818
20220818,330500,120.086823,30.894348,浙江省,湖州市,\N,浙江省湖州市,PARTLY_CLOUDY_DAY,05:27,18:39,0.78,1,0.18,285.4,728.4,0,32.85,38,28,0,0,0,100193.04,100391.42,100003.16,123.28,113.33,129.21,10.11,14.47,6.26,0.74,0.94,0.49,17.32,29.28,8.38,19,24,15,适宜,1,极易发,4,闷热,0,极热,1,最弱,1,多云（白天）,无雨,无雨,无雨,多云,多云,晴,\N,\N,\N,东东南(ESE),东东南(ESE),东南(SE),2级(清风),3级(树叶摇摆),2级(清风),\N,\N,\N,\N,\N,\N,20220818
20220818,330600,120.580232,30.029752,浙江省,绍兴市,\N,浙江省绍兴市,PARTLY_CLOUDY_DAY,05:26,18:36,0.71,1,0.06,293.5,787,0,33.5,38,29,0,0,0,99898.36,100057.56,99744.02,133.54,47.12,199.42,6.48,14.19,2.79,0.66,0.89,0.37,20.68,28.81,16.08,18,22,14,适宜,1,极易发,4,闷热,0,极热,1,最弱,1,多云（白天）,无雨,无雨,无雨,多云,多云,晴,\N,\N,\N,东南(SE),东北(NE),南西南(SSW),2级(清风),3级(树叶摇摆),1级(微风徐徐),\N,\N,\N,\N,\N,\N,20220818
20220818,652900,80.260605,41.168779,新疆维吾尔自治区,阿克苏地区,\N,新疆维吾尔自治区阿克苏地区,CLEAR_DAY,07:51,21:34,0.17,0.87,0,276.3,875.3,0,21.02,29,14,0,0,0,88229.72,88393.83,87992.73,92.47,105.47,357.88,8.52,17.32,1.37,0.44,0.58,0.33,39.88,44.59,32.4,23,30,13,适宜,1,极易发,4,温暖,4,温暖,4,强,4,晴（白天）,无雨,无雨,无雨,晴,多云,晴,\N,\N,\N,东(E),东东南(ESE),\N,2级(清风),3级(树叶摇摆),1级(微风徐徐),\N,\N,\N,\N,\N,\N,20220818
20220818,350100,119.296494,26.074507,福建省,福州市,\N,福建省福州市,PARTLY_CLOUDY_DAY,05:36,18:36,0.46,1,0,248.9,719.3,0,33.88,37,27,0,0,0,97972.06,98057.95,97832.83,101.47,111.96,145.08,4.68,12.31,0.36,0.75,0.95,0.47,22.03,35.75,14.03,12,19,10,适宜,1,极易发,4,闷热,0,极热,1,弱,2,多云（白天）,无雨,无雨,无雨,多云,多云,晴,\N,\N,\N,东东南(ESE),东东南(ESE),东南(SE),1级(微风徐徐),3级(树叶摇摆),0级(无风),\N,\N,\N,\N,\N,\N,20220818
20220818,330700,119.647444,29.079059,浙江省,金华市,\N,浙江省金华市,PARTLY_CLOUDY_DAY,05:31,18:39,0.35,0.99,0.03,307.6,799.3,0,33.92,39,29,0,0,0,98642.9,98851.81,98409.17,121.92,125.04,103.44,4.87,7.74,1.09,0.67,0.94,0.35,21.95,30.88,15.79,32,40,25,适宜,1,极易发,4,闷热,0,极热,1,强,4,多云（白天）,无雨,无雨,无雨,多云,多云,晴,\N,\N,\N,东东南(ESE),东南(SE),东东南(ESE),1级(微风徐徐),2级(清风),1级(微风徐徐),\N,\N,\N,\N,\N,\N,20220818
20220818,330800,118.859457,28.970079,浙江省,衢州市,\N,浙江省衢州市,PARTLY_CLOUDY_DAY,05:34,18:42,0.38,1,0.03,306.1,796,0,33.58,40,27,0,0,0,98169.4,98359.7,97969.28,62.49,44.88,47.72,6.08,8.99,2.41,0.67,0.94,0.41,21.87,30.43,15.42,19,24,15,适宜,1,极易发,4,闷热,0,极热,1,中等,3,多云（白天）,无雨,无雨,无雨,多云,多云,晴,\N,\N,\N,东东北(ENE),东北(NE),东北(NE),2级(清风),2级(清风),1级(微风徐徐),\N,\N,\N,\N,\N,\N,20220818
20220818,330900,122.207215,29.985295,浙江省,舟山市,\N,浙江省舟山市,PARTLY_CLOUDY_DAY,05:20,18:30,0.58,1,0,307,813.8,0,30.38,35,26,0,0,0,100327.24,100428.49,100269.29,175.58,178.56,187.03,25.65,31.19,21.57,0.85,0.92,0.76,11.93,19.91,1.62,8,16,6,适宜,1,极易发,4,闷热,0,热,3,中等,3,多云（白天）,无雨,无雨,无雨,多云,多云,晴,\N,\N,\N,南(S),南(S),南(S),4级(树枝摇动),\N,4级(树枝摇动),\N,\N,\N,\N,\N,\N,20220818
20220818,331000,121.420757,28.656386,浙江省,台州市,\N,浙江省台州市,PARTLY_CLOUDY_DAY,05:24,18:31,0.22,0.95,0.02,317.2,826.5,0,31.03,37,27,0,0.08,0,99918.12,100014.67,99838.81,169.71,155.18,200.42,12.53,21.69,5.41,0.78,0.95,0.55,18.88,28.77,12.23,25,35,17,较不适宜,3,极易发,4,闷热,0,很热,2,强,4,多云（白天）,无雨,小雨,无雨,多云,多云,晴,\N,\N,\N,南(S),南东南(SSE),南西南(SSW),3级(树叶摇摆),4级(树枝摇动),1级(微风徐徐),\N,\N,\N,\N,\N,\N,20220818
20220818,331100,119.922796,28.46763,浙江省,丽水市,\N,浙江省丽水市,PARTLY_CLOUDY_DAY,05:31,18:37,0.22,1,0.01,314.3,815.9,0,32.1,40,26,0,0,0,96285.64,96437.39,96103.05,134.98,126.05,121.75,6.27,15.97,2.25,0.7,0.95,0.35,19.33,27.48,13.49,12,16,10,适宜,1,极易发,4,闷热,0,极热,1,强,4,多云（白天）,无雨,无雨,无雨,多云,多云,晴,\N,\N,\N,东南(SE),东南(SE),东东南(ESE),2级(清风),3级(树叶摇摆),1级(微风徐徐),\N,\N,\N,\N,\N,\N,20220818
20220818,340100,117.227239,31.820586,安徽省,合肥市,\N,安徽省合肥市,PARTLY_CLOUDY_DAY,05:37,18:52,0.54,1,0.05,299.2,762.2,0,32.08,38,27,0,0,0,99961.69,100154.5,99754.5,133.21,128.67,125.39,13.36,16.24,10.24,0.66,0.89,0.43,23.2,32.15,9.54,18,26,10,适宜,1,极易发,4,闷热,0,极热,1,中等,3,多云（白天）,无雨,无雨,无雨,多云,多云,晴,\N,\N,\N,东南(SE),东南(SE),东南(SE),3级(树叶摇摆),3级(树叶摇摆),2级(清风),\N,\N,\N,\N,\N,\N,20220818
20220818,340200,118.432941,31.352859,安徽省,芜湖市,\N,安徽省芜湖市,PARTLY_CLOUDY_DAY,05:33,18:46,0.43,1,0.05,296.6,763.9,0,32.86,38,29,0,0,0,100232.56,100458.54,100058.54,115.76,116.83,114.8,10.35,13.37,7.07,0.67,0.91,0.43,20.28,30.19,9.21,12,21,4,适宜,1,极易发,4,闷热,0,极热,1,强,4,多云（白天）,无雨,无雨,无雨,多云,多云,晴,\N,\N,\N,东东南(ESE),东东南(ESE),东东南(ESE),2级(清风),3级(树叶摇摆),2级(清风),\N,\N,\N,\N,\N,\N,20220818
20220818,340300,117.389719,32.916287,安徽省,蚌埠市,\N,安徽省蚌埠市,CLOUDY,05:35,18:53,0.89,1,0.3,280.1,749.9,0,32.08,37,28,0,0,0,99932.65,100209.49,99699.75,136.44,147.81,108.35,13.45,16.41,9.99,0.7,0.94,0.44,19.36,30.16,9.87,24,36,14,适宜,1,极易发,4,闷热,0,极热,1,最弱,1,阴,无雨,无雨,无雨,多云,多云,多云,\N,\N,\N,东南(SE),南东南(SSE),东东南(ESE),3级(树叶摇摆),3级(树叶摇摆),2级(清风),\N,\N,\N,\N,\N,\N,20220818
20220818,341800,118.758816,30.940718,安徽省,宣城市,\N,安徽省宣城市,PARTLY_CLOUDY_DAY,05:32,18:45,0.36,1,0.05,286.7,750.9,0,32.48,39,27,0,0,0,99648.44,99860.97,99479.27,105.87,116.68,132.33,7.88,10.29,5.11,0.67,0.88,0.41,20.19,28.11,12.78,11,17,4,适宜,1,极易发,4,闷热,0,极热,1,强,4,多云（白天）,无雨,无雨,无雨,多云,多云,晴,\N,\N,\N,东东南(ESE),东东南(ESE),东南(SE),2级(清风),2级(清风),1级(微风徐徐),\N,\N,\N,\N,\N,\N,20220818
20220818,340400,116.999932,32.625478,安徽省,淮南市,\N,安徽省淮南市,CLOUDY,05:37,18:54,0.85,1,0.3,274.1,761.5,0,31.23,36,27.83,0,0,0,99943.53,100200.16,99720.15,136.39,141.65,152.04,13.41,16.75,10.78,0.67,0.94,0.4,20.52,31.04,9.98,21,30,11,适宜,1,极易发,4,闷热,0,很热,2,弱,2,阴,无雨,无雨,无雨,多云,多云,多云,\N,\N,\N,东南(SE),东南(SE),南东南(SSE),3级(树叶摇摆),3级(树叶摇摆),2级(清风),\N,\N,\N,\N,\N,\N,20220818
20220818,341700,117.491568,30.6648,安徽省,池州市,\N,安徽省池州市,PARTLY_CLOUDY_DAY,05:38,18:49,0.49,1,0.05,284.4,763.5,0,31.62,38,26,0,0,0,99614.54,99788.53,99439.48,129.24,88.92,267.22,4.58,8.13,1.76,0.67,0.93,0.38,21.03,27.97,15.62,14,20,8,适宜,1,极易发,4,闷热,0,很热,2,强,4,多云（白天）,无雨,无雨,无雨,多云,多云,晴,\N,\N,\N,东南(SE),东(E),西(W),1级(微风徐徐),2级(清风),1级(微风徐徐),\N,\N,\N,\N,\N,\N,20220818
20220818,340500,118.506759,31.670452,安徽省,马鞍山市,\N,安徽省马鞍山市,PARTLY_CLOUDY_DAY,05:32,18:47,0.47,1,0.05,296.3,763,0,33.46,39,29,0,0,0,100185.34,100421.82,100020.34,118.54,93.35,130.98,10.87,14.2,6.53,0.69,0.94,0.44,20.29,30.37,8.29,15,22,7,适宜,1,极易发,4,闷热,0,极热,1,中等,3,多云（白天）,无雨,无雨,无雨,多云,多云,晴,\N,\N,\N,东东南(ESE),东(E),东南(SE),2级(清风),3级(树叶摇摆),2级(清风),\N,\N,\N,\N,\N,\N,20220818
20220818,340600,116.798265,33.955844,安徽省,淮北市,\N,安徽省淮北市,PARTLY_CLOUDY_DAY,05:36,18:57,0.79,1,0,285.1,736.6,0,32.25,35,27,0,0,0,99829.88,100067.38,99575.98,134.44,150.84,137.45,14.1,18.33,9.4,0.76,0.9,0.55,18.26,24.77,12.65,33,43,26,较不适宜,3,极易发,4,闷热,0,极热,1,最弱,1,多云（白天）,无雨,无雨,无雨,多云,多云,晴,\N,\N,\N,东南(SE),南东南(SSE),东南(SE),3级(树叶摇摆),3级(树叶摇摆),2级(清风),\N,\N,\N,\N,\N,\N,20220818
20220818,340700,117.812079,30.945429,安徽省,铜陵市,\N,安徽省铜陵市,PARTLY_CLOUDY_DAY,05:36,18:48,0.41,1,0.04,296.2,763.8,0,33.6,38,29.83,0,0,0,99847.1,100007.51,99670.05,135.43,71.03,170.6,5.67,7.37,3.57,0.66,0.89,0.43,20.93,28.21,15.01,14,22,7,适宜,1,极易发,4,闷热,0,极热,1,强,4,多云（白天）,无雨,无雨,无雨,多云,多云,晴,\N,\N,\N,东南(SE),东东北(ENE),南(S),1级(微风徐徐),2级(清风),1级(微风徐徐),\N,\N,\N,\N,\N,\N,20220818
20220818,341600,115.778676,33.844582,安徽省,亳州市,\N,安徽省亳州市,CLOUDY,05:40,19:01,0.83,1,0,283.9,727,0,33.04,37,29,0,0,0,99793.6,100085.7,99525.7,150.9,152.2,197.14,13.22,17.08,7.38,0.73,0.92,0.53,20.1,27.25,11.97,28,36,20,较不适宜,3,极易发,4,闷热,0,极热,1,最弱,1,阴,无雨,无雨,无雨,多云,多云,晴,\N,\N,\N,南东南(SSE),南东南(SSE),南西南(SSW),3级(树叶摇摆),3级(树叶摇摆),2级(清风),\N,\N,\N,\N,\N,\N,20220818
20220818,340800,117.063754,30.543494,安徽省,安庆市,\N,安徽省安庆市,PARTLY_CLOUDY_DAY,05:40,18:51,0.51,1,0.1,300.9,768.3,0,32.86,38,28,0,0,0,99896.75,100083.55,99683.55,221.96,235.94,234.8,5.83,10.93,1.05,0.62,0.86,0.37,21.01,28.07,15.31,15,22,9,适宜,1,极易发,4,闷热,0,极热,1,中等,3,多云（白天）,无雨,无雨,无雨,多云,多云,晴,\N,\N,\N,西南(SW),西南(SW),西南(SW),1级(微风徐徐),2级(清风),1级(微风徐徐),\N,\N,\N,\N,\N,\N,20220818
20220818,341000,118.337481,29.714655,安徽省,黄山市,\N,安徽省黄山市,PARTLY_CLOUDY_DAY,05:35,18:45,0.62,1,0.04,291.5,756.4,0,31.79,38,26,0,0,0,97114.61,97285.13,96927.83,107.13,116.02,137.08,3.44,6.91,2.03,0.69,0.95,0.39,19.72,27.43,14.17,15,19,13,适宜,1,极易发,4,闷热,0,很热,2,最弱,1,多云（白天）,无雨,无雨,无雨,多云,多云,晴,\N,\N,\N,东东南(ESE),东东南(ESE),东南(SE),1级(微风徐徐),2级(清风),1级(微风徐徐),\N,\N,\N,\N,\N,\N,20220818
20220818,341100,118.317106,32.301556,安徽省,滁州市,\N,安徽省滁州市,PARTLY_CLOUDY_DAY,05:32,18:48,0.54,1,0,293.7,755.7,0,31.96,38,27,0,0,0,99833.31,100106.7,99673.16,134.42,144.18,91.17,11.74,15.49,8.04,0.72,0.97,0.45,20.1,30.97,9.57,16,25,9,适宜,1,极易发,4,闷热,0,很热,2,中等,3,多云（白天）,无雨,无雨,无雨,多云,多云,晴,\N,\N,\N,东南(SE),东南(SE),东(E),2级(清风),3级(树叶摇摆),2级(清风),\N,\N,\N,\N,\N,\N,20220818
20220818,341200,115.814204,32.890124,安徽省,阜阳市,\N,安徽省阜阳市,CLOUDY,05:41,18:59,0.81,1,0.24,246,755,0,32.65,37,28.83,0,0,0,99865.35,100100.55,99620.55,155.69,138.21,178.11,10.7,15.1,4.68,0.66,0.93,0.38,22.98,34.72,10.47,16,25,7,适宜,1,极易发,4,闷热,0,极热,1,最弱,1,阴,无雨,无雨,无雨,多云,多云,多云,\N,\N,\N,南东南(SSE),东南(SE),南(S),2级(清风),3级(树叶摇摆),1级(微风徐徐),\N,\N,\N,\N,\N,\N,20220818
20220818,341500,116.521854,31.733699,安徽省,六安市,\N,安徽省六安市,PARTLY_CLOUDY_DAY,05:40,18:55,0.65,1,0.05,291.5,766,0,32.33,38,28,0,0,0,99606.59,99871.08,99402.37,127.73,86.65,136.59,11.01,15.25,8.04,0.63,0.87,0.36,22.92,32.64,12.75,15,22,9,适宜,1,极易发,4,闷热,0,极热,1,弱,2,多云（白天）,无雨,无雨,无雨,多云,多云,晴,\N,\N,\N,东南(SE),东(E),东南(SE),2级(清风),3级(树叶摇摆),2级(清风),\N,\N,\N,\N,\N,\N,20220818
20220818,341300,116.964356,33.646373,安徽省,宿州市,\N,安徽省宿州市,CLOUDY,05:36,18:55,0.82,1,0,261.8,733.8,0,30.38,35,27,0.02,0.45,0,99954.85,100228.27,99713.16,131.99,125.05,162.45,13.32,16.83,7.76,0.72,0.91,0.48,17.35,25.75,10.53,31,41,25,较不适宜,3,极易发,4,闷热,0,很热,2,最弱,1,阴,无雨,大雨,无雨,多云,多云,晴,\N,\N,\N,东南(SE),东南(SE),南东南(SSE),3级(树叶摇摆),3级(树叶摇摆),2级(清风),\N,\N,\N,\N,\N,\N,20220818
20220818,620600,102.638011,37.928264,甘肃省,武威市,\N,甘肃省武威市,LIGHT_RAIN,06:27,19:59,0.84,1,0.3,140,489.4,0,21.67,25,17,0.11,1.18,0,82486.53,82763.02,82221.04,350.01,339.25,126.32,14.08,32.04,1.8,0.48,0.71,0.32,28.21,38.78,14.09,16,25,13,较不适宜,3,极易发,4,舒适,5,温暖,4,弱,2,小雨,小雨,暴雨,无雨,多云,多云,多云,\N,\N,\N,\N,北西北(NNW),东南(SE),3级(树叶摇摆),\N,1级(微风徐徐),\N,\N,\N,\N,\N,\N,20220818
20220818,620700,100.449818,38.925875,甘肃省,张掖市,\N,甘肃省张掖市,LIGHT_RAIN,06:34,20:09,0.96,1,0.3,52.5,240.8,0,19.71,24,17,0.11,0.91,0,83795.3,83990.22,83381.09,331.07,325.86,332.01,13.74,37.01,0.59,0.41,0.5,0.34,24.55,41.16,13.16,14,18,10,较不适宜,3,易发,3,温暖,4,温暖,4,最弱,1,小雨,小雨,暴雨,无雨,多云,多云,多云,\N,\N,\N,北西北(NNW),西北(NW),北西北(NNW),3级(树叶摇摆),\N,0级(无风),\N,\N,\N,\N,\N,\N,20220818
20220818,610800,109.734589,38.28539,陕西省,榆林市,\N,陕西省榆林市,MODERATE_RAIN,05:58,19:31,0.9,1,0.3,84,235.6,0,20.79,22,18,1.41,19.77,0,87746.21,87951.98,87616.42,198.28,173.46,328.56,20.14,30.32,5.27,0.7,0.86,0.45,13.99,21.41,2.08,10,13,7,较不适宜,3,易发,3,温暖,4,凉爽,5,最弱,1,中雨,暴雨,暴雨,无雨,多云,多云,多云,\N,\N,\N,南西南(SSW),南(S),北西北(NNW),4级(树枝摇动),\N,1级(微风徐徐),\N,\N,\N,\N,\N,\N,20220818
20220818,620800,106.66524,35.543051,甘肃省,平凉市,\N,甘肃省平凉市,CLOUDY,06:14,19:39,0.94,1,0.3,56.4,212.7,0,21.38,26,18,0,0,0,83144.45,83504.23,82886.9,303.47,343.65,153.21,11.18,23.52,4.04,0.78,0.89,0.56,20.04,31.43,11.91,24,30,21,较不适宜,3,极易发,4,温暖,4,温暖,4,最弱,1,阴,无雨,无雨,无雨,多云,多云,多云,\N,\N,\N,西西北(WNW),北西北(NNW),南东南(SSE),2级(清风),4级(树枝摇动),1级(微风徐徐),\N,\N,\N,\N,\N,\N,20220818
20220818,620900,98.494483,39.73241,甘肃省,酒泉市,\N,甘肃省酒泉市,LIGHT_RAIN,06:40,20:19,0.9,1,0.21,95.3,527.8,0,21.17,26,17,0.03,0.16,0,84172.71,84304.8,83834.38,290.64,341.84,142.35,13.24,35.03,4.53,0.44,0.51,0.34,51.07,58.91,39.97,16,20,15,较不适宜,3,极易发,4,温暖,4,温暖,4,最弱,1,小雨,小雨,小雨,无雨,多云,多云,多云,\N,\N,\N,西西北(WNW),北西北(NNW),东南(SE),3级(树叶摇摆),\N,1级(微风徐徐),\N,\N,\N,\N,\N,\N,20220818
20220818,621000,107.643631,35.709077,甘肃省,庆阳市,\N,甘肃省庆阳市,CLOUDY,06:10,19:36,0.9,1,0.3,106.9,490.8,0,21.67,25,17,0,0,0,86703.45,87051.34,86537.31,306.29,330.98,147.92,13.99,28.5,4.74,0.69,0.79,0.51,21.27,34.77,9.98,21,26,17,较不适宜,3,极易发,4,温暖,4,温暖,4,最弱,1,阴,无雨,无雨,无雨,多云,多云,多云,\N,\N,\N,西北(NW),北西北(NNW),南东南(SSE),3级(树叶摇摆),4级(树枝摇动),1级(微风徐徐),\N,\N,\N,\N,\N,\N,20220818
20220818,621100,104.626282,35.580662,甘肃省,定西市,\N,甘肃省定西市,LIGHT_RAIN,06:22,19:48,0.97,1,0.3,21.9,79.3,0,19.08,20,16,0.04,0.54,0,79016.26,79401.22,78661.02,342.37,342.11,341.97,12.14,21.72,0.23,0.78,0.93,0.57,20,36.44,12.04,23,27,21,较不适宜,3,易发,3,舒适,5,温暖,4,最弱,1,小雨,小雨,暴雨,无雨,多云,多云,多云,\N,\N,\N,北西北(NNW),北西北(NNW),北西北(NNW),3级(树叶摇摆),4级(树枝摇动),0级(无风),\N,\N,\N,\N,\N,\N,20220818
20220818,610700,107.023323,33.06748,陕西省,汉中市,\N,陕西省汉中市,CLOUDY,06:16,19:34,0.94,1,0.3,168,548.6,0,32.58,38,27,0,0.06,0,92179.4,92492.24,91973.41,340.47,286.06,277.27,4.35,8.71,1.2,0.65,0.89,0.34,22.5,32.14,11.99,16,19,14,较不适宜,3,极易发,4,闷热,0,极热,1,最弱,1,阴,无雨,小雨,无雨,多云,多云,多云,\N,\N,\N,北西北(NNW),西西北(WNW),西(W),1级(微风徐徐),2级(清风),1级(微风徐徐),\N,\N,\N,\N,\N,\N,20220818
20220818,621200,104.921841,33.400684,甘肃省,陇南市,\N,甘肃省陇南市,CLOUDY,06:24,19:43,0.96,1,0.3,194.2,630.8,0,31.04,36,26,0,0,0,80163.85,80554.55,79982.95,135.85,50.63,14.35,7.47,12.3,2.25,0.86,0.97,0.61,13.97,19.41,10.33,14,18,12,适宜,1,极易发,4,闷热,0,很热,2,最弱,1,阴,无雨,无雨,无雨,多云,多云,多云,\N,\N,\N,东南(SE),东北(NE),北东北(NNE),2级(清风),3级(树叶摇摆),1级(微风徐徐),\N,\N,\N,\N,\N,\N,20220818
20220818,622900,103.210538,35.601182,甘肃省,临夏回族自治州,\N,甘肃省临夏回族自治州,CLOUDY,06:28,19:53,0.95,1,0.3,12.8,36.9,0,20.64,24,15,0.01,0.25,0,78515.12,78893.3,78140.82,288.44,349.82,276.91,5.34,9.49,1.7,0.82,0.89,0.72,19.39,29.08,8.84,24,28,22,较不适宜,3,极易发,4,温暖,4,温暖,4,最弱,1,阴,无雨,\N,无雨,多云,多云,多云,\N,\N,\N,西西北(WNW),\N,西(W),1级(微风徐徐),2级(清风),1级(微风徐徐),\N,\N,\N,\N,\N,\N,20220818
20220818,622901,103.210538,35.601182,甘肃省,临夏回族自治州,\N,甘肃省临夏回族自治州,CLOUDY,06:28,19:53,0.95,1,0.3,12.8,36.9,0,20.64,24,15,0.01,0.25,0,78515.12,78893.3,78140.82,288.44,349.82,276.91,5.34,9.49,1.7,0.82,0.89,0.72,19.39,29.08,8.84,24,28,22,较不适宜,3,极易发,4,温暖,4,温暖,4,最弱,1,阴,无雨,\N,无雨,多云,多云,多云,\N,\N,\N,西西北(WNW),\N,西(W),1级(微风徐徐),2级(清风),1级(微风徐徐),\N,\N,\N,\N,\N,\N,20220818
20220818,540600,94.035462,29.282958,西藏自治区,那曲市,\N,西藏自治区那曲市,CLOUDY,07:13,20:21,0.95,1,0.3,152.6,455.3,0,18.65,24,13,0,0,0,62876.75,63020.99,62686.66,138.1,134.34,227.02,5.46,12.17,1.12,0.74,0.98,0.46,11.32,18.38,7.08,5,8,3,较不适宜,3,极易发,4,温暖,4,温暖,4,最弱,1,阴,无雨,无雨,无雨,多云,多云,多云,\N,\N,\N,东南(SE),东南(SE),西南(SW),1级(微风徐徐),3级(树叶摇摆),1级(微风徐徐),\N,\N,\N,\N,\N,\N,20220818
20220818,623000,102.911027,34.983385,甘肃省,甘南藏族自治州,\N,甘肃省甘南藏族自治州,LIGHT_RAIN,06:30,19:54,0.97,1,0.3,63.9,281,0,15.5,18,11,0.18,1.84,0,68696.19,68991.93,68498.64,32.37,26.95,72.29,6.56,16.61,0.65,0.95,0.98,0.87,15.01,31.45,8.47,13,19,11,较不适宜,3,易发,3,凉爽,6,温暖,4,最弱,1,小雨,小雨,暴雨,无雨,多云,多云,多云,\N,\N,\N,北东北(NNE),北东北(NNE),东东北(ENE),2级(清风),3级(树叶摇摆),0级(无风),\N,\N,\N,\N,\N,\N,20220818
20220818,620200,98.289152,39.77313,甘肃省,嘉峪关市,\N,甘肃省嘉峪关市,CLOUDY,06:41,20:20,0.84,1,0.08,95.4,391.3,0,21.48,26,17,0.01,0.06,0,82657.27,82791.75,82342.36,289,343.17,165.79,15.25,36.12,6.11,0.46,0.56,0.35,49.44,57.66,37.1,17,20,16,较不适宜,3,极易发,4,温暖,4,凉爽,5,最弱,1,阴,无雨,小雨,无雨,多云,多云,晴,\N,\N,\N,西西北(WNW),北西北(NNW),南东南(SSE),3级(树叶摇摆),\N,2级(清风),\N,\N,\N,\N,\N,\N,20220818
20220818,630100,101.778228,36.617144,青海省,西宁市,\N,青海省西宁市,CLOUDY,06:32,20:01,0.87,1,0.3,166,533.2,0,17.27,22,12.5,0.03,0.44,0,74409.93,74765.54,74186.52,117.06,114.44,238.19,9.71,26.65,1.81,0.79,0.9,0.68,16.65,26.91,9.58,19,25,14,较不适宜,3,极易发,4,温暖,4,温暖,4,弱,2,阴,无雨,大雨,无雨,多云,多云,多云,\N,\N,\N,东东南(ESE),东东南(ESE),西西南(WSW),2级(清风),4级(树枝摇动),1级(微风徐徐),\N,\N,\N,\N,\N,\N,20220818
20220818,540500,91.773134,29.237137,西藏自治区,山南市,\N,西藏自治区山南市,LIGHT_RAIN,07:22,20:30,0.83,1,0.06,250.1,917.3,0,19.04,27,11,0.1,0.93,0,61632.08,61829.98,61397.79,86.23,47.86,99.1,7.47,11.79,0.8,0.54,0.76,0.32,23.12,35.12,10.9,3,5,3,较不适宜,3,极易发,4,温暖,4,温暖,4,最弱,1,小雨,小雨,暴雨,无雨,多云,多云,晴,\N,\N,\N,东(E),东北(NE),东(E),2级(清风),2级(清风),0级(无风),\N,\N,\N,\N,\N,\N,20220818
20220818,630200,102.104287,36.502039,青海省,海东市,\N,青海省海东市,LIGHT_RAIN,06:31,19:59,0.83,1,0.3,147.5,589.3,0,18.96,34.56,14.07,0.05,0.72,0,75901.9,76263.21,75647.26,98.23,97.41,84.1,13.36,30,0.31,0.77,0.87,0.65,17.62,25.01,12.58,19,25,14,较不适宜,3,极易发,4,冷,7,温暖,4,最弱,1,小雨,小雨,暴雨,无雨,多云,多云,多云,\N,\N,\N,东(E),东(E),东(E),3级(树叶摇摆),\N,0级(无风),\N,\N,\N,\N,\N,\N,20220818
20220818,610500,109.509786,34.499995,陕西省,渭南市,\N,陕西省渭南市,CLOUDY,06:04,19:26,0.81,1,0,262,766.2,0,30.11,35,25,0,0,0,94972.74,95416.53,94622.8,343.45,229.74,114.38,9.48,29.96,2.17,0.59,0.91,0.28,28.77,40.37,18.88,27,30,24,适宜,1,极易发,4,闷热,0,很热,2,最弱,1,阴,无雨,无雨,无雨,多云,多云,晴,\N,\N,\N,北西北(NNW),西南(SW),东东南(ESE),2级(清风),\N,1级(微风徐徐),\N,\N,\N,\N,\N,\N,20220818
20220818,540400,94.361558,29.648943,西藏自治区,林芝市,\N,西藏自治区林芝市,CLOUDY,07:12,20:20,0.93,1,0.3,130,416.6,0,20.96,26,14,0.01,0.05,0,61820.31,61922.73,61655.11,154.32,155.49,161.9,5.76,9.8,1.71,0.76,0.96,0.48,10.44,18.97,7.39,5,8,3,较不适宜,3,极易发,4,温暖,4,温暖,4,最弱,1,阴,无雨,小雨,无雨,多云,多云,多云,\N,\N,\N,南东南(SSE),南东南(SSE),南东南(SSE),1级(微风徐徐),2级(清风),1级(微风徐徐),\N,\N,\N,\N,\N,\N,20220818
20220818,610600,109.489727,36.585455,陕西省,延安市,\N,陕西省延安市,CLOUDY,06:01,19:30,0.84,1,0,123.2,478.1,0,23.06,29,18,0,0.11,0,87439.63,87662.93,87313.42,223.75,213.77,253.05,13.26,27.18,1.89,0.78,0.91,0.56,23.38,33.72,12.44,12,16,10,较不适宜,3,极易发,4,热,3,热,3,最弱,1,阴,无雨,小雨,无雨,多云,多云,晴,\N,\N,\N,西南(SW),西南(SW),西西南(WSW),3级(树叶摇摆),4级(树枝摇动),1级(微风徐徐),\N,\N,\N,\N,\N,\N,20220818
20220818,540300,97.17202,31.140969,西藏自治区,昌都市,\N,西藏自治区昌都市,CLOUDY,06:58,20:11,0.95,1,0.3,170.9,679.1,0,19.83,30,11,0,0,0,61657.65,61824.62,61480.95,119.87,181.11,286.52,2.7,5.05,0.38,0.77,0.91,0.48,25.92,40.46,15.73,6,9,6,较不适宜,3,极易发,4,温暖,4,温暖,4,最弱,1,阴,无雨,无雨,无雨,多云,多云,多云,\N,\N,\N,东东南(ESE),南(S),西西北(WNW),1级(微风徐徐),1级(微风徐徐),0级(无风),\N,\N,\N,\N,\N,\N,20220818
20220818,540200,88.880583,29.266869,西藏自治区,日喀则市,\N,西藏自治区日喀则市,LIGHT_RAIN,07:34,20:42,0.57,1,0.05,320.9,996,0,18.33,26,11,0.09,1.16,0,61831.41,62041.68,61512.88,199.52,223.38,96.44,5.64,16.48,0.22,0.4,0.59,0.2,30.17,48.49,12.64,3,3,3,较不适宜,3,极易发,4,温暖,4,温暖,4,弱,2,小雨,小雨,暴雨,无雨,多云,多云,晴,\N,\N,\N,南西南(SSW),西南(SW),东(E),1级(微风徐徐),3级(树叶摇摆),0级(无风),\N,\N,\N,\N,\N,\N,20220818
20220818,632200,100.900997,36.954413,青海省,海北藏族自治州,\N,青海省海北藏族自治州,LIGHT_RAIN,06:35,20:05,0.73,1,0.18,262.4,831.6,0,15.08,19,9,0.15,1.81,0,68073.27,68305.8,67961.64,110.26,113.62,137.25,7.84,16.97,1.96,0.84,0.96,0.63,14.11,29.68,7.84,15,22,9,较不适宜,3,极易发,4,凉爽,6,温暖,4,中等,3,小雨,小雨,暴雨,无雨,多云,多云,晴,\N,\N,\N,东东南(ESE),东东南(ESE),东南(SE),2级(清风),3级(树叶摇摆),1级(微风徐徐),\N,\N,\N,\N,\N,\N,20220818
20220818,540100,91.140856,29.645554,西藏自治区,拉萨市,\N,西藏自治区拉萨市,LIGHT_RAIN,07:24,20:33,0.72,1,0.05,247.4,695.3,0,19.81,26,13,0.34,3.88,0,60031.25,60189.69,59794.68,105.1,48.29,89.08,5.04,13.09,1.82,0.61,0.84,0.32,22.67,33.39,7.41,3,6,3,较不适宜,3,极易发,4,温暖,4,温暖,4,最弱,1,小雨,中雨,暴雨,无雨,多云,多云,晴,\N,\N,\N,东东南(ESE),东北(NE),东(E),1级(微风徐徐),3级(树叶摇摆),1级(微风徐徐),\N,\N,\N,\N,\N,\N,20220818
20220818,533400,99.702234,27.818882,云南省,迪庆藏族自治州,\N,云南省迪庆藏族自治州,PARTLY_CLOUDY_DAY,06:52,19:57,0.8,1,0.3,209.1,602.7,0,12.11,17.79,7.31,0.01,0.09,0,66424.59,66512.77,66303.02,193.27,255.78,133.76,4.68,6.44,2.6,0.89,0.97,0.75,8.59,17.58,0.05,7,9,5,较不适宜,3,极易发,4,很冷,8,凉爽,5,最弱,1,多云（白天）,无雨,小雨,无雨,多云,多云,多云,\N,\N,\N,南西南(SSW),西西南(WSW),东南(SE),1级(微风徐徐),2级(清风),1级(微风徐徐),\N,\N,\N,\N,\N,\N,20220818
20220818,632300,102.015248,35.519548,青海省,黄南藏族自治州,\N,青海省黄南藏族自治州,LIGHT_RAIN,06:33,19:58,0.93,1,0.3,81,318.1,0,20.22,26,13,0.04,0.46,0,68861.4,69164.88,68684,45.68,38.95,293.33,5.19,13.35,1.02,0.94,0.98,0.87,17.33,23.91,12.64,13,18,10,较不适宜,3,极易发,4,温暖,4,温暖,4,最弱,1,小雨,小雨,大雨,无雨,多云,多云,多云,\N,\N,\N,东北(NE),东北(NE),西西北(WNW),1级(微风徐徐),3级(树叶摇摆),1级(微风徐徐),\N,\N,\N,\N,\N,\N,20220818
20220818,533300,98.853097,25.852547,云南省,怒江傈僳族自治州,\N,云南省怒江傈僳族自治州,LIGHT_RAIN,06:58,19:58,0.48,0.86,0.12,314.2,949.9,0,27.25,32,21,0.1,0.67,0,77135.97,77251.21,76977.89,246.88,214.74,284.62,3.36,6.01,0.53,0.88,0.97,0.72,15.14,20.23,9.39,5,5,5,较不适宜,3,极易发,4,闷热,0,很热,2,弱,2,小雨,小雨,暴雨,无雨,多云,多云,晴,\N,\N,\N,西西南(WSW),西南(SW),西西北(WNW),1级(微风徐徐),2级(清风),0级(无风),\N,\N,\N,\N,\N,\N,20220818
20220818,533100,98.584895,24.433353,云南省,德宏傣族景颇族自治州,\N,云南省德宏傣族景颇族自治州,MODERATE_RAIN,07:01,19:57,0.31,0.76,0.05,313.4,959,0,26.88,32,22,0.46,8.26,0,84742.58,84885.99,84544.44,155.19,225.1,322.34,2.3,4.11,0.05,0.87,0.99,0.6,11.05,16,4.7,3,5,3,较不适宜,3,极易发,4,闷热,0,很热,2,强,4,中雨,大雨,暴雨,无雨,多云,多云,晴,\N,\N,\N,南东南(SSE),西南(SW),西北(NW),1级(微风徐徐),1级(微风徐徐),0级(无风),\N,\N,\N,\N,\N,\N,20220818
20220818,820000,113.543028,22.186835,澳门特别行政区,澳门特别行政区,\N,澳门特别行政区,LIGHT_RAIN,06:04,18:55,0.71,1,0.13,307.5,800.5,0,27.65,31,24,0.18,2.2,0,100264.5,100362.01,100122.01,137.77,123.38,139.95,13.26,17.58,9.96,0.76,0.85,0.68,11.51,14.43,8.8,6,13,3,较不适宜,3,易发,3,闷热,0,很热,2,最弱,1,小雨,小雨,暴雨,无雨,多云,多云,晴,\N,\N,\N,东南(SE),东东南(ESE),东南(SE),3级(树叶摇摆),3级(树叶摇摆),2级(清风),\N,\N,\N,\N,\N,\N,20220818
20220818,532901,100.267638,25.606486,云南省,大理白族自治州,\N,云南省大理白族自治州,MODERATE_RAIN,06:53,19:52,0.4,0.89,0,289.2,911.7,0,20.33,27,16,0.99,13.78,0,77877.66,78009.65,77687.24,217.36,212.25,221.91,5.83,7.12,3.45,0.76,0.95,0.45,10.88,17.29,2.12,3,3,3,较不适宜,3,极易发,4,温暖,4,温暖,4,强,4,中雨,暴雨,暴雨,无雨,多云,多云,晴,\N,\N,\N,西南(SW),南西南(SSW),西南(SW),1级(微风徐徐),2级(清风),1级(微风徐徐),\N,\N,\N,\N,\N,\N,20220818
20220818,532900,100.267638,25.606486,云南省,大理白族自治州,\N,云南省大理白族自治州,MODERATE_RAIN,06:53,19:52,0.4,0.89,0,289.2,911.7,0,20.33,27,16,0.99,13.78,0,77877.66,78009.65,77687.24,217.36,212.25,221.91,5.83,7.12,3.45,0.76,0.95,0.45,10.88,17.29,2.12,3,3,3,较不适宜,3,极易发,4,温暖,4,温暖,4,强,4,中雨,暴雨,暴雨,无雨,多云,多云,晴,\N,\N,\N,西南(SW),南西南(SSW),西南(SW),1级(微风徐徐),2级(清风),1级(微风徐徐),\N,\N,\N,\N,\N,\N,20220818
20220818,532800,100.797777,22.007351,云南省,西双版纳傣族自治州,\N,云南省西双版纳傣族自治州,HEAVY_RAIN,06:55,19:46,0.6,0.98,0.03,264.5,714.8,0,26.17,32,22,2,12.89,0,90197.32,90371.33,89971.33,211.52,231.75,189.91,3,5.29,0.79,0.78,0.98,0.47,9.17,13.79,1.22,3,4,3,较不适宜,3,极易发,4,热,3,很热,2,中等,3,大雨,暴雨,暴雨,无雨,多云,多云,晴,\N,\N,\N,南西南(SSW),西南(SW),南(S),1级(微风徐徐),1级(微风徐徐),0级(无风),\N,\N,\N,\N,\N,\N,20220818
20220818,532601,104.216248,23.400733,云南省,文山壮族苗族自治州,\N,云南省文山壮族苗族自治州,LIGHT_RAIN,06:40,19:33,0.61,0.9,0.22,229.2,710,0,23.96,29,19,0.42,1.98,0,84100.89,84248.79,83930.93,163.75,164.95,145.49,6.63,10.64,3.08,0.84,0.98,0.61,8.19,10.52,4.05,5,10,3,较不适宜,3,极易发,4,热,3,热,3,中等,3,小雨,大雨,暴雨,无雨,多云,多云,多云,\N,\N,\N,南东南(SSE),南东南(SSE),东南(SE),2级(清风),2级(清风),1级(微风徐徐),\N,\N,\N,\N,\N,\N,20220818
20220818,632500,100.620373,36.286437,青海省,海南藏族自治州,\N,青海省海南藏族自治州,LIGHT_RAIN,06:37,20:05,0.64,1,0.16,257.7,868.1,0,20.29,24,12,0.21,2.83,0,70501.49,70723.42,70375.08,96.34,108.54,109.58,8.02,19.23,2.32,0.72,0.89,0.44,17.83,29.8,9.91,17,23,11,较不适宜,3,极易发,4,温暖,4,温暖,4,中等,3,小雨,小雨,暴雨,无雨,多云,多云,晴,\N,\N,\N,东(E),东东南(ESE),东东南(ESE),2级(清风),3级(树叶摇摆),1级(微风徐徐),\N,\N,\N,\N,\N,\N,20220818
20220818,632600,100.244808,34.471431,青海省,果洛藏族自治州,\N,青海省果洛藏族自治州,LIGHT_RAIN,06:41,20:03,0.86,1,0.28,200.8,618.5,0,11.39,17.92,6.54,0.05,0.6,0,61760.09,61942.19,61666.67,50.1,34.4,82.49,5.94,10.53,1.66,0.82,0.92,0.68,18.23,31.75,8.01,14,22,10,较不适宜,3,极易发,4,很冷,8,凉爽,5,最弱,1,小雨,小雨,暴雨,无雨,多云,多云,多云,\N,\N,\N,东北(NE),东北(NE),东(E),1级(微风徐徐),2级(清风),1级(微风徐徐),\N,\N,\N,\N,\N,\N,20220818
20220818,532600,104.216248,23.400733,云南省,文山壮族苗族自治州,\N,云南省文山壮族苗族自治州,LIGHT_RAIN,06:40,19:33,0.61,0.9,0.22,229.2,710,0,23.96,29,19,0.42,1.98,0,84100.89,84248.79,83930.93,163.75,164.95,145.49,6.63,10.64,3.08,0.84,0.98,0.61,8.19,10.52,4.05,5,10,3,较不适宜,3,极易发,4,热,3,热,3,中等,3,小雨,大雨,暴雨,无雨,多云,多云,多云,\N,\N,\N,南东南(SSE),南东南(SSE),东南(SE),2级(清风),2级(清风),1级(微风徐徐),\N,\N,\N,\N,\N,\N,20220818
20220818,532500,103.374799,23.36313,云南省,红河哈尼族彝族自治州,\N,云南省红河哈尼族彝族自治州,LIGHT_RAIN,06:43,19:37,0.55,1,0.21,234.7,659.3,0,25.92,30,21,0.31,2.96,0,82833.63,82977.83,82666.86,164.36,152.61,147.39,5.18,7.5,3.02,0.84,0.97,0.6,10.68,15.4,5.69,6,10,4,较不适宜,3,极易发,4,热,3,热,3,中等,3,小雨,中雨,暴雨,无雨,多云,多云,多云,\N,\N,\N,南东南(SSE),南东南(SSE),南东南(SSE),1级(微风徐徐),2级(清风),1级(微风徐徐),\N,\N,\N,\N,\N,\N,20220818
20220818,632700,97.091934,33.011674,青海省,玉树藏族自治州,\N,青海省玉树藏族自治州,CLOUDY,06:56,20:14,0.85,1,0.3,260.6,882.9,0,15.69,24,8,0,0,0,60655.09,60787.54,60508.23,69.26,53.23,67.03,4.02,9.61,1.72,0.79,0.94,0.52,22.45,35.18,12.31,4,7,3,适宜,1,极易发,4,凉爽,6,温暖,4,弱,2,阴,无雨,无雨,无雨,多云,多云,多云,\N,\N,\N,东东北(ENE),东北(NE),东东北(ENE),1级(微风徐徐),2级(清风),1级(微风徐徐),\N,\N,\N,\N,\N,\N,20220818
20220818,532301,101.528068,25.045532,云南省,楚雄彝族自治州,\N,云南省楚雄彝族自治州,LIGHT_RAIN,06:48,19:46,0.45,0.97,0.05,311.8,929.5,0,22.04,28,17,0.04,0.44,0,80179.91,80323.06,79969.53,197.02,186.74,199.2,6.58,13.08,2.65,0.76,0.96,0.45,10.72,19.22,5.99,9,12,8,较不适宜,3,极易发,4,温暖,4,热,3,强,4,小雨,小雨,大雨,无雨,多云,多云,晴,\N,\N,\N,南西南(SSW),南(S),南西南(SSW),2级(清风),3级(树叶摇摆),1级(微风徐徐),\N,\N,\N,\N,\N,\N,20220818
20220818,632800,97.369751,37.377139,青海省,海西蒙古族藏族自治州,\N,青海省海西蒙古族藏族自治州,LIGHT_RAIN,06:49,20:19,0.52,0.98,0.07,269.4,908.6,0,18.44,24,13,0.04,0.68,0,67407.34,67563.8,67293.4,202.75,217.56,215.65,11.25,22.87,2.78,0.36,0.45,0.27,30.52,40.21,16.71,15,21,11,较不适宜,3,极易发,4,温暖,4,温暖,4,中等,3,小雨,小雨,暴雨,无雨,多云,多云,晴,\N,\N,\N,南西南(SSW),西南(SW),西南(SW),2级(清风),4级(树枝摇动),1级(微风徐徐),\N,\N,\N,\N,\N,\N,20220818
20220818,632825,90.855821,38.247159,青海省,海西蒙古族藏族自治州直辖,\N,青海省海西蒙古族藏族自治州直辖,PARTLY_CLOUDY_DAY,07:13,20:47,0.42,1,0,284,965.5,0,17.25,23,12,0,0,0,70296.66,70406.87,70121.07,10.12,304.33,349.9,8.57,14.61,1.66,0.42,0.61,0.18,42.72,50.37,35.79,3,4,3,适宜,1,极易发,4,温暖,4,温暖,4,强,4,多云（白天）,无雨,无雨,无雨,多云,多云,晴,\N,\N,\N,\N,西北(NW),\N,2级(清风),3级(树叶摇摆),1级(微风徐徐),\N,\N,\N,\N,\N,\N,20220818
20220818,532300,101.528068,25.045532,云南省,楚雄彝族自治州,\N,云南省楚雄彝族自治州,LIGHT_RAIN,06:48,19:46,0.45,0.97,0.05,311.8,929.5,0,22.04,28,17,0.04,0.44,0,80179.91,80323.06,79969.53,197.02,186.74,199.2,6.58,13.08,2.65,0.76,0.96,0.45,10.72,19.22,5.99,9,12,8,较不适宜,3,极易发,4,温暖,4,热,3,强,4,小雨,小雨,大雨,无雨,多云,多云,晴,\N,\N,\N,南西南(SSW),南(S),南西南(SSW),2级(清风),3级(树叶摇摆),1级(微风徐徐),\N,\N,\N,\N,\N,\N,20220818
20220818,530900,100.079583,23.877573,云南省,临沧市,\N,云南省临沧市,MODERATE_RAIN,06:56,19:51,0.43,1,0.14,315.3,914.6,0,22.4,28,18,0.83,4.22,0,81408.79,81517.86,81225.12,183.45,186.92,155.52,3.06,4.51,1.27,0.85,0.97,0.67,9.38,14.01,4.76,3,8,3,较不适宜,3,极易发,4,热,3,热,3,强,4,中雨,暴雨,暴雨,无雨,多云,多云,晴,\N,\N,\N,南(S),南(S),南东南(SSE),1级(微风徐徐),1级(微风徐徐),1级(微风徐徐),\N,\N,\N,\N,\N,\N,20220818
20220818,640100,106.230909,38.487193,宁夏回族自治区,银川市,\N,宁夏回族自治区银川市,LIGHT_RAIN,06:11,19:46,0.69,1,0.05,186.2,641.1,0,24.52,29,19,0.26,2.93,0,87925.67,88273.3,87633.62,318.7,29.03,29.28,10.42,17.37,2.64,0.49,0.81,0.25,18.33,31.89,8.65,14,18,12,较不适宜,3,极易发,4,热,3,热,3,最弱,1,小雨,中雨,暴雨,无雨,多云,多云,晴,\N,\N,\N,西北(NW),北东北(NNE),北东北(NNE),2级(清风),3级(树叶摇摆),1级(微风徐徐),\N,\N,\N,\N,\N,\N,20220818
20220818,530800,100.966512,22.825065,云南省,普洱市,\N,云南省普洱市,HEAVY_RAIN,06:53,19:46,0.52,0.96,0.06,238,713.8,0,21.15,26,18,2.97,32.1,0,85404.55,85564.44,85185.24,165.2,208.11,132.51,3.65,6.67,1.79,0.8,0.97,0.51,6.31,12.84,0.21,7,11,3,较不适宜,3,极易发,4,温暖,4,温暖,4,强,4,大雨,暴雨,暴雨,无雨,多云,多云,晴,\N,\N,\N,南东南(SSE),南西南(SSW),东南(SE),1级(微风徐徐),2级(清风),1级(微风徐徐),\N,\N,\N,\N,\N,\N,20220818
20220818,610100,108.940174,34.341568,陕西省,西安市,\N,陕西省西安市,PARTLY_CLOUDY_DAY,06:07,19:29,0.79,1,0.1,276.9,801.9,0,31.9,39,27,0,0,0,95195.15,95645.53,94845.53,17.09,273.06,14.45,11.62,32.87,2.03,0.58,0.86,0.27,30.33,42.07,19.96,26,31,23,适宜,1,极易发,4,闷热,0,很热,2,最弱,1,多云（白天）,无雨,无雨,无雨,多云,多云,晴,\N,\N,\N,北东北(NNE),西(W),北东北(NNE),2级(清风),\N,1级(微风徐徐),\N,\N,\N,\N,\N,\N,20220818
20220818,620300,102.188043,38.520089,甘肃省,金昌市,\N,甘肃省金昌市,PARTLY_CLOUDY_DAY,06:27,20:02,0.8,1,0.23,208.1,826.7,0,21.4,27,16,0.01,0.08,0,82792.62,83040.99,82494.94,327.47,320.28,245.53,18.81,34.41,2.07,0.44,0.7,0.3,29.62,36.09,22.35,18,21,15,较不适宜,3,极易发,4,温暖,4,凉爽,5,弱,2,多云（白天）,无雨,小雨,无雨,多云,多云,多云,\N,\N,\N,北西北(NNW),西北(NW),西西南(WSW),3级(树叶摇摆),\N,1级(微风徐徐),\N,\N,\N,\N,\N,\N,20220818
20220818,640200,106.383303,38.983236,宁夏回族自治区,石嘴山市,\N,宁夏回族自治区石嘴山市,MODERATE_RAIN,06:10,19:46,0.69,1,0.05,206.5,703.4,0,22.88,29,17,0.56,8.51,0,86326.93,86618.65,86093.49,321,311.53,14.58,21.26,38.73,6.8,0.45,0.83,0.23,20.04,33.56,4.24,17,23,14,较不适宜,3,极易发,4,温暖,4,温暖,4,最弱,1,中雨,暴雨,暴雨,无雨,多云,多云,晴,\N,\N,\N,西北(NW),西北(NW),北东北(NNE),4级(树枝摇动),\N,2级(清风),\N,\N,\N,\N,\N,\N,20220818
20220818,530700,100.22775,26.855047,云南省,丽江市,\N,云南省丽江市,PARTLY_CLOUDY_DAY,06:52,19:53,0.6,0.99,0.14,323,932.7,0,18.85,23,15,0,0,0,72992.89,73084.66,72858.47,225.28,175.19,271.21,4.54,7.37,2.58,0.87,0.96,0.74,12.28,16.35,8.12,4,8,3,较不适宜,3,极易发,4,温暖,4,温暖,4,弱,2,多云（白天）,无雨,无雨,无雨,多云,多云,晴,\N,\N,\N,西南(SW),南(S),西(W),1级(微风徐徐),2级(清风),1级(微风徐徐),\N,\N,\N,\N,\N,\N,20220818
20220818,530600,103.717465,27.338257,云南省,昭通市,\N,云南省昭通市,PARTLY_CLOUDY_DAY,06:37,19:40,0.56,1,0.17,296.6,878.9,0,23.69,29,18,0.01,0.2,0,78715.31,78811.25,78585.37,201.43,200.24,10.81,7.37,12.84,1.42,0.79,0.96,0.56,13.56,21.19,8.78,12,16,9,较不适宜,3,极易发,4,热,3,热,3,中等,3,多云（白天）,无雨,小雨,无雨,多云,多云,晴,\N,\N,\N,南西南(SSW),南西南(SSW),\N,2级(清风),3级(树叶摇摆),1级(微风徐徐),\N,\N,\N,\N,\N,\N,20220818
20220818,640300,106.198393,37.99746,宁夏回族自治区,吴忠市,\N,宁夏回族自治区吴忠市,PARTLY_CLOUDY_DAY,06:12,19:45,0.74,1,0.3,156.3,653.2,0,23.94,29,18,0.02,0.24,0,87835.55,88243.35,87523.35,320.67,169.16,282.15,12.58,23.02,1.97,0.52,0.83,0.29,18.42,27.79,10.14,19,26,16,较不适宜,3,极易发,4,热,3,热,3,最弱,1,多云（白天）,无雨,小雨,无雨,多云,多云,多云,\N,\N,\N,西北(NW),南(S),西西北(WNW),3级(树叶摇摆),4级(树枝摇动),1级(微风徐徐),\N,\N,\N,\N,\N,\N,20220818
20220818,530500,99.161761,25.112046,云南省,保山市,\N,云南省保山市,MODERATE_RAIN,06:58,19:56,0.24,0.63,0.05,309.7,884.4,0,22.88,29,18,1.38,19.14,0,81094.4,81233.51,80903.2,178.53,182.13,238.1,3.75,8.46,0.39,0.83,0.97,0.56,12.12,18.43,0.81,8,12,6,较不适宜,3,极易发,4,热,3,热,3,强,4,中雨,暴雨,暴雨,无雨,多云,多云,晴,\N,\N,\N,南(S),南(S),西西南(WSW),1级(微风徐徐),2级(清风),0级(无风),\N,\N,\N,\N,\N,\N,20220818
20220818,530400,102.546543,24.352036,云南省,玉溪市,\N,云南省玉溪市,PARTLY_CLOUDY_DAY,06:45,19:41,0.45,0.96,0.03,265.7,743.1,0,21.94,27,17,0,0,0,80388.38,80512.32,80232.32,176.39,212.32,133.27,4.12,6.89,0.69,0.83,0.97,0.55,11.94,19.28,8.96,3,4,3,较不适宜,3,极易发,4,温暖,4,温暖,4,中等,3,多云（白天）,无雨,无雨,无雨,多云,多云,晴,\N,\N,\N,南(S),南西南(SSW),东南(SE),1级(微风徐徐),2级(清风),0级(无风),\N,\N,\N,\N,\N,\N,20220818
20220818,530300,103.796167,25.489999,云南省,曲靖市,\N,云南省曲靖市,LIGHT_RAIN,06:39,19:38,0.41,0.98,0.05,312.5,923.5,0,21.85,28,17,0.12,1.93,0,79436.97,79562.39,79251.08,189.24,172.12,170.37,8.21,12.8,4.82,0.81,0.97,0.52,10.46,18.47,5.28,5,11,3,较不适宜,3,极易发,4,热,3,温暖,4,强,4,小雨,小雨,暴雨,无雨,多云,多云,晴,\N,\N,\N,南(S),南(S),南(S),2级(清风),3级(树叶摇摆),1级(微风徐徐),\N,\N,\N,\N,\N,\N,20220818
20220818,530100,102.832891,24.880095,云南省,昆明市,\N,云南省昆明市,PARTLY_CLOUDY_DAY,06:43,19:41,0.29,0.9,0.05,287.4,737,0,21.25,26,17,0.02,0.37,0,79813.21,79949.74,79636.1,179.82,184.59,163.84,6.34,11.04,3.29,0.79,0.95,0.54,11.1,17.21,7.05,6,11,3,较不适宜,3,极易发,4,温暖,4,温暖,4,强,4,多云（白天）,无雨,大雨,无雨,多云,多云,晴,\N,\N,\N,南(S),南(S),南东南(SSE),2级(清风),2级(清风),1级(微风徐徐),\N,\N,\N,\N,\N,\N,20220818
20220818,522700,107.522097,26.254092,贵州省,黔南布依族苗族自治州,\N,贵州省黔南布依族苗族自治州,PARTLY_CLOUDY_DAY,06:23,19:24,0.45,1,0.05,235.8,678.6,0,27.25,33,22,0,0.07,0,89368.26,89519.17,89200.36,185.29,189.36,201.51,6.61,10.61,3.37,0.83,0.98,0.55,10.09,15.09,3.52,5,9,3,较不适宜,3,极易发,4,闷热,0,很热,2,中等,3,多云（白天）,无雨,小雨,无雨,多云,多云,晴,\N,\N,\N,南(S),南(S),南西南(SSW),2级(清风),2级(清风),1级(微风徐徐),\N,\N,\N,\N,\N,\N,20220818
20220818,610400,108.708991,34.329605,陕西省,咸阳市,\N,咸阳市,PARTLY_CLOUDY_DAY,06:08,19:29,0.78,1,0.06,271,811.1,0,31.23,38,26,0,0,0,95204.44,95652.17,94847.41,1.25,270.27,30.96,14.51,30.6,7.05,0.57,0.87,0.27,29.3,41.63,19.24,26,31,23,适宜,1,极易发,4,闷热,0,很热,2,最弱,1,多云（白天）,无雨,无雨,无雨,多云,多云,晴,\N,\N,\N,\N,西(W),北东北(NNE),3级(树叶摇摆),\N,2级(清风),\N,\N,\N,\N,\N,\N,20220818
20220818,522600,107.982859,26.583442,贵州省,黔东南苗族侗族自治州,\N,贵州省黔东南苗族侗族自治州,PARTLY_CLOUDY_DAY,06:21,19:22,0.42,1,0.01,220.2,720.2,0,30.58,37,25,0,0,0,90502.07,90667.89,90323.02,194.42,210.04,190.99,6.78,9.71,4.43,0.78,0.97,0.49,11.43,16.91,8.43,9,14,4,较不适宜,3,极易发,4,闷热,0,很热,2,中等,3,多云（白天）,无雨,无雨,无雨,多云,多云,晴,\N,\N,\N,南西南(SSW),南西南(SSW),南(S),2级(清风),2级(清风),1级(微风徐徐),\N,\N,\N,\N,\N,\N,20220818
20220818,640400,106.24261,36.015855,宁夏回族自治区,固原市,\N,宁夏回族自治区固原市,LIGHT_RAIN,06:15,19:42,0.92,1,0.3,22,74.9,0,16.9,20,14,0.42,4.41,0,80932.27,81283.95,80643.87,296.16,336.27,298.55,12.37,21.95,5.58,0.78,0.95,0.55,15.42,26.01,4.23,21,25,18,较不适宜,3,易发,3,凉爽,6,温暖,4,最弱,1,小雨,大雨,暴雨,无雨,多云,多云,多云,\N,\N,\N,西西北(WNW),北西北(NNW),西西北(WNW),3级(树叶摇摆),4级(树枝摇动),1级(微风徐徐),\N,\N,\N,\N,\N,\N,20220818
20220818,522300,104.906396,25.087825,贵州省,黔西南布依族苗族自治州,\N,贵州省黔西南布依族苗族自治州,LIGHT_RAIN,06:35,19:33,0.47,0.86,0.06,265.1,917,0,25.67,31,22,0.17,1.77,0,85896.76,86025.9,85688.32,156,142.68,165.18,4.8,10,0.49,0.85,0.98,0.57,4.51,10,0.1,8,13,5,较不适宜,3,极易发,4,热,3,热,3,弱,2,小雨,小雨,暴雨,无雨,多云,多云,晴,\N,\N,\N,南东南(SSE),东南(SE),南东南(SSE),1级(微风徐徐),2级(清风),0级(无风),\N,\N,\N,\N,\N,\N,20220818
20220818,520600,109.189598,27.731514,贵州省,铜仁市,\N,贵州省铜仁市,PARTLY_CLOUDY_DAY,06:15,19:19,0.24,0.82,0.05,318.5,858.4,0,33.9,39,27,0,0,0,94579.13,94769.15,94349.82,177.45,139.2,208.41,5.67,10.89,0.81,0.62,0.85,0.35,17.18,25.15,10.94,16,26,11,适宜,1,极易发,4,闷热,0,极热,1,强,4,多云（白天）,无雨,无雨,无雨,多云,多云,晴,\N,\N,\N,南(S),东南(SE),南西南(SSW),1级(微风徐徐),2级(清风),0级(无风),\N,\N,\N,\N,\N,\N,20220818
20220818,520500,105.283992,27.302589,贵州省,毕节市,\N,贵州省毕节市,PARTLY_CLOUDY_DAY,06:31,19:34,0.47,0.98,0.05,328.8,917.6,0,27.02,33,20,0,0,0,82917.83,83018.62,82778.62,170.32,149.55,175.8,14.9,22.75,7.65,0.8,0.97,0.55,13.17,21.38,8.96,11,20,6,较不适宜,3,极易发,4,闷热,0,很热,2,最弱,1,多云（白天）,无雨,无雨,无雨,多云,多云,晴,\N,\N,\N,南(S),南东南(SSE),南(S),3级(树叶摇摆),4级(树枝摇动),2级(清风),\N,\N,\N,\N,\N,\N,20220818
20220818,611000,109.940477,33.870422,陕西省,商洛市,\N,陕西省商洛市,CLOUDY,06:03,19:24,0.83,1,0.3,239.2,654.7,0,29.79,36,26,0,0,0,88459.77,88643.52,88252.7,199.01,202.99,137.09,8.02,17.85,2.12,0.73,0.95,0.39,18,27.88,8.62,12,17,8,适宜,1,极易发,4,闷热,0,很热,2,最弱,1,阴,无雨,无雨,无雨,多云,多云,多云,\N,\N,\N,南西南(SSW),南西南(SSW),东南(SE),2级(清风),3级(树叶摇摆),1级(微风徐徐),\N,\N,\N,\N,\N,\N,20220818
20220818,520400,105.947593,26.253072,贵州省,安顺市,\N,贵州省安顺市,LIGHT_RAIN,06:29,19:30,0.42,0.98,0.05,290.7,865.1,0,24.19,30,20,0.05,0.44,0,85843.5,85993.88,85674.66,182.59,192.4,151.91,12.34,21.22,5.68,0.84,0.99,0.63,6.73,14.65,0.13,4,10,3,较不适宜,3,极易发,4,温暖,4,热,3,中等,3,小雨,小雨,大雨,无雨,多云,多云,晴,\N,\N,\N,南(S),南西南(SSW),南东南(SSE),3级(树叶摇摆),4级(树枝摇动),1级(微风徐徐),\N,\N,\N,\N,\N,\N,20220818
20220818,520300,106.927389,27.725654,贵州省,遵义市,\N,贵州省遵义市,PARTLY_CLOUDY_DAY,06:24,19:28,0.36,1,0.04,315.6,884.8,0,31.02,37,25,0,0,0,89686.44,89837.75,89458.73,155.35,171.78,189.55,8.84,15.62,2.65,0.74,0.93,0.5,14.5,22.31,5.64,12,17,10,适宜,1,极易发,4,闷热,0,很热,2,中等,3,多云（白天）,无雨,无雨,无雨,多云,多云,晴,\N,\N,\N,南东南(SSE),南(S),南(S),2级(清风),3级(树叶摇摆),1级(微风徐徐),\N,\N,\N,\N,\N,\N,20220818
20220818,640500,105.196902,37.499972,宁夏回族自治区,中卫市,\N,宁夏回族自治区中卫市,LIGHT_RAIN,06:17,19:48,0.92,1,0.3,84.4,397.3,0,23.04,26,18,0.05,0.49,0,86197.17,86578.58,85778.6,319.88,324.63,291.18,24.14,34.9,17.75,0.46,0.78,0.24,22.57,34.68,16.16,22,27,20,较不适宜,3,极易发,4,温暖,4,温暖,4,最弱,1,小雨,小雨,暴雨,无雨,多云,多云,多云,\N,\N,\N,西北(NW),西北(NW),西西北(WNW),4级(树枝摇动),\N,3级(树叶摇摆),\N,\N,\N,\N,\N,\N,20220818
20220818,520200,104.830359,26.592666,贵州省,六盘水市,\N,贵州省六盘水市,PARTLY_CLOUDY_DAY,06:33,19:35,0.5,0.98,0.06,319.5,896.8,0,23.92,29,19,0.01,0.1,0,80298.15,80424.61,80144.61,172.09,155.26,185.16,10.31,16.2,5.98,0.84,0.98,0.6,6.67,12.97,0.29,7,14,4,较不适宜,3,极易发,4,热,3,热,3,弱,2,多云（白天）,无雨,小雨,无雨,多云,多云,晴,\N,\N,\N,南(S),南东南(SSE),南(S),2级(清风),3级(树叶摇摆),1级(微风徐徐),\N,\N,\N,\N,\N,\N,20220818
20220818,520100,106.630153,26.647661,贵州省,贵阳市,\N,贵州省贵阳市,PARTLY_CLOUDY_DAY,06:26,19:28,0.37,0.99,0.05,309.9,901.2,0,26.09,41.51,19.05,0,0,0,86853.65,86992.99,86672.99,178.71,191.85,165.81,13.51,21.2,7.61,0.79,0.97,0.54,10.28,15.78,2.89,4,10,3,适宜,1,极易发,4,温暖,4,很热,2,强,4,多云（白天）,无雨,无雨,无雨,多云,多云,晴,\N,\N,\N,南(S),南西南(SSW),南东南(SSE),3级(树叶摇摆),4级(树枝摇动),2级(清风),\N,\N,\N,\N,\N,\N,20220818
20220818,650100,87.616848,43.825592,新疆维吾尔自治区,乌鲁木齐市,\N,新疆维吾尔自治区乌鲁木齐市,CLEAR_DAY,07:16,21:09,0.02,0.3,0,281,863.7,0,22.69,27,17,0,0,0,90055.6,90198.02,89883.56,339.89,340.43,262.14,9.06,16.62,0.55,0.2,0.29,0.13,53.39,60,46,12,16,9,适宜,1,极易发,4,热,3,热,3,强,4,晴（白天）,无雨,无雨,无雨,晴,多云,晴,\N,\N,\N,北西北(NNW),北西北(NNW),西(W),2级(清风),3级(树叶摇摆),0级(无风),\N,\N,\N,\N,\N,\N,20220818
20220818,513400,102.267335,27.88161,四川省,凉山彝族自治州,\N,四川省凉山彝族自治州,PARTLY_CLOUDY_DAY,06:42,19:47,0.74,1,0.15,304.9,925.9,0,25.02,32,20,0,0,0,78564.91,78692.31,78361.03,161.17,161.72,129.58,4.16,8.6,0.7,0.8,0.95,0.52,20.27,30.74,13.72,10,15,9,较不适宜,3,极易发,4,热,3,热,3,弱,2,多云（白天）,无雨,无雨,无雨,多云,多云,晴,\N,\N,\N,南东南(SSE),南东南(SSE),东南(SE),1级(微风徐徐),2级(清风),0级(无风),\N,\N,\N,\N,\N,\N,20220818
20220818,513300,101.96231,30.04952,四川省,甘孜藏族自治州,\N,四川省甘孜藏族自治州,LIGHT_RAIN,06:41,19:51,0.96,1,0.3,246.9,778.6,0,17.46,24,12,0.03,0.35,0,64309.79,64454.95,64254.95,118.89,113.57,256.7,5.12,9.59,1.18,0.91,0.97,0.82,5.92,15.22,0.03,9,13,6,较不适宜,3,极易发,4,温暖,4,温暖,4,最弱,1,小雨,小雨,\N,无雨,多云,多云,多云,\N,\N,\N,东东南(ESE),东东南(ESE),西西南(WSW),1级(微风徐徐),2级(清风),1级(微风徐徐),\N,\N,\N,\N,\N,\N,20220818
20220818,513200,102.224653,31.899413,四川省,阿坝藏族羌族自治州,\N,四川省阿坝藏族羌族自治州,CLOUDY,06:37,19:52,0.89,1,0.3,245.2,920.7,0,18.1,24,12,0,0,0,64267.52,64383.31,64116.14,148.91,124.8,139.56,6.93,9.81,3.52,0.75,0.97,0.39,21.38,35.74,14.15,11,14,7,较不适宜,3,极易发,4,温暖,4,温暖,4,最弱,1,阴,无雨,无雨,无雨,多云,多云,多云,\N,\N,\N,南东南(SSE),东南(SE),东南(SE),2级(清风),2级(清风),1级(微风徐徐),\N,\N,\N,\N,\N,\N,20220818
20220818,512000,104.627636,30.128901,四川省,资阳市,\N,四川省资阳市,CLOUDY,06:30,19:40,0.96,1,0.3,242.2,678.5,0,33.71,38,27,0,0,0,95279.59,95417.31,95118.37,3.59,9.82,119.03,9.07,18.05,5.44,0.79,0.94,0.6,21.38,31.19,13.03,10,19,7,适宜,1,极易发,4,闷热,0,极热,1,最弱,1,阴,无雨,无雨,无雨,多云,多云,多云,\N,\N,\N,\N,\N,东东南(ESE),2级(清风),3级(树叶摇摆),1级(微风徐徐),\N,\N,\N,\N,\N,\N,20220818
20220818,511900,106.747477,31.867903,四川省,巴中市,\N,四川省巴中市,CLOUDY,06:19,19:34,0.87,1,0.19,277.9,814.1,0,33.4,39,27,0,0,0,93513.82,93583.07,93380.42,87.43,140.16,359.15,8.09,13.29,4.12,0.67,0.86,0.45,22.7,31.98,15.21,14,15,14,较不适宜,3,极易发,4,闷热,0,极热,1,最弱,1,阴,无雨,无雨,无雨,多云,多云,晴,\N,\N,\N,东(E),东南(SE),\N,2级(清风),3级(树叶摇摆),1级(微风徐徐),\N,\N,\N,\N,\N,\N,20220818
20220818,511800,103.013261,29.980537,四川省,雅安市,\N,四川省雅安市,CLOUDY,06:36,19:46,0.97,1,0.3,278.7,809.3,0,28.65,34,25,0,0.07,0,89914.38,90101.8,89791.95,343.2,58.91,289.75,5.06,7.39,1.49,0.86,0.99,0.66,14.72,18.39,10.84,22,26,18,较不适宜,3,极易发,4,闷热,0,很热,2,最弱,1,阴,无雨,小雨,无雨,多云,多云,多云,\N,\N,\N,北西北(NNW),东东北(ENE),西西北(WNW),1级(微风徐徐),2级(清风),1级(微风徐徐),\N,\N,\N,\N,\N,\N,20220818
20220818,511700,107.468023,31.209571,四川省,达州市,\N,四川省达州市,CLOUDY,06:17,19:30,0.95,1,0.3,290.7,824.1,0,35.29,41,28,0,0,0,94799.03,94893.73,94582.31,95.61,137.82,73.09,7.7,14.86,4.33,0.57,0.74,0.4,24.74,33.97,15.9,14,15,14,适宜,1,极易发,4,闷热,0,极热,1,最弱,1,阴,无雨,无雨,无雨,多云,多云,多云,\N,\N,\N,东(E),东南(SE),东东北(ENE),2级(清风),3级(树叶摇摆),1级(微风徐徐),\N,\N,\N,\N,\N,\N,20220818
20220818,610300,107.237974,34.361979,陕西省,宝鸡市,\N,陕西省宝鸡市,CLOUDY,06:14,19:35,0.95,1,0.3,145.5,592.2,0,27.6,35,24,0,0,0,88540.39,88997.48,88289.66,256.74,336.06,157.58,5.27,23.13,1.89,0.68,0.86,0.4,26.42,33.61,18.4,27,33,25,适宜,1,极易发,4,闷热,0,很热,2,最弱,1,阴,无雨,无雨,无雨,多云,多云,多云,\N,\N,\N,西西南(WSW),北西北(NNW),南东南(SSE),1级(微风徐徐),4级(树枝摇动),1级(微风徐徐),\N,\N,\N,\N,\N,\N,20220818
20220818,511600,106.633212,30.455961,四川省,广安市,\N,四川省广安市,CLOUDY,06:21,19:32,0.91,1,0.3,302.6,832.9,0,35.29,41,28,0,0,0,95606.63,95715.4,95409.49,121.23,157.66,121.25,7.47,11,3.12,0.51,0.72,0.34,27.85,38.61,19.93,12,15,9,适宜,1,极易发,4,闷热,0,极热,1,最弱,1,阴,无雨,无雨,无雨,多云,多云,多云,\N,\N,\N,东东南(ESE),南东南(SSE),东东南(ESE),2级(清风),2级(清风),1级(微风徐徐),\N,\N,\N,\N,\N,\N,20220818
20220818,650200,84.889207,45.579888,新疆维吾尔自治区,克拉玛依市,\N,新疆维吾尔自治区克拉玛依市,CLEAR_DAY,07:24,21:24,0.04,0.3,0,301.2,897,0,22.17,27,16,0,0.06,0,95458.91,95735.57,95194.94,25.8,322.28,91.3,14.88,32.22,1.72,0.16,0.26,0.12,43.44,52.31,32.29,18,31,12,较不适宜,3,极易发,4,温暖,4,热,3,强,4,晴（白天）,无雨,小雨,无雨,晴,多云,晴,\N,\N,\N,北东北(NNE),西北(NW),东(E),3级(树叶摇摆),\N,1级(微风徐徐),\N,\N,\N,\N,\N,\N,20220818
20220818,511500,104.643215,28.751768,四川省,宜宾市,\N,四川省宜宾市,PARTLY_CLOUDY_DAY,06:32,19:38,0.7,1,0.11,310.2,875.3,0,34.74,40,26,0,0,0,95352.14,95557.8,95112.29,300.8,317.04,263.82,5.96,13.38,2.68,0.65,0.89,0.36,21.03,32.25,14.1,20,27,18,较不适宜,3,极易发,4,闷热,0,极热,1,最弱,1,多云（白天）,无雨,无雨,无雨,多云,多云,晴,\N,\N,\N,西西北(WNW),西北(NW),西(W),1级(微风徐徐),3级(树叶摇摆),1级(微风徐徐),\N,\N,\N,\N,\N,\N,20220818
20220818,511400,103.848538,30.075439,四川省,眉山市,\N,四川省眉山市,CLOUDY,06:33,19:43,0.96,1,0.3,235.3,638.1,0,31.35,37,26,0,0.07,0,94722.22,94858.36,94584.51,353.85,348.19,85.39,8,17.61,3.64,0.85,0.96,0.68,15.17,23.2,9.49,14,22,10,较不适宜,3,极易发,4,闷热,0,很热,2,最弱,1,阴,无雨,小雨,无雨,多云,多云,多云,\N,\N,\N,\N,北西北(NNW),东(E),2级(清风),3级(树叶摇摆),1级(微风徐徐),\N,\N,\N,\N,\N,\N,20220818
20220818,511300,106.110698,30.837793,四川省,南充市,\N,四川省南充市,CLOUDY,06:23,19:35,0.91,1,0.3,291.6,838.8,0,35.31,41,29,0,0,0,95889.65,96008.66,95701.1,125.38,169.43,356.31,9.26,17.35,1.78,0.55,0.76,0.34,28.91,39.64,19.78,11,15,8,适宜,1,极易发,4,闷热,0,极热,1,最弱,1,阴,无雨,无雨,无雨,多云,多云,多云,\N,\N,\N,东南(SE),南(S),\N,2级(清风),3级(树叶摇摆),1级(微风徐徐),\N,\N,\N,\N,\N,\N,20220818
20220818,511100,103.765568,29.552106,四川省,乐山市,\N,四川省乐山市,CLOUDY,06:34,19:43,0.97,1,0.3,243.3,663.1,0,33.04,37,26,0,0,0,95305.01,95443.34,95143.96,327.82,303.9,308.53,5.45,8.91,2.94,0.85,0.97,0.59,14.75,22.28,10.25,15,20,11,较不适宜,3,极易发,4,闷热,0,极热,1,最弱,1,阴,无雨,无雨,无雨,多云,多云,多云,\N,\N,\N,北西北(NNW),西北(NW),西北(NW),1级(微风徐徐),2级(清风),1级(微风徐徐),\N,\N,\N,\N,\N,\N,20220818
20220818,511000,105.058433,29.580228,四川省,内江市,\N,四川省内江市,CLOUDY,06:29,19:38,0.92,1,0.3,266.3,694.9,0,33.6,40,28,0,0,0,95847.31,95994.52,95674.52,124.12,159.99,143.61,9.07,14.35,3.12,0.62,0.77,0.4,26.32,36.52,18.75,16,20,14,较不适宜,3,极易发,4,闷热,0,极热,1,最弱,1,阴,无雨,无雨,无雨,多云,多云,多云,\N,\N,\N,东南(SE),南东南(SSE),东南(SE),2级(清风),3级(树叶摇摆),1级(微风徐徐),\N,\N,\N,\N,\N,\N,20220818
20220818,510900,105.592898,30.532847,四川省,遂宁市,\N,四川省遂宁市,CLOUDY,06:25,19:37,0.95,1,0.3,288.3,804,0,33.83,40,28.67,0,0,0,96039.48,96160.42,95840.42,141.06,150.82,128.94,9.27,20.23,1.48,0.57,0.75,0.37,27.95,37.42,19.52,10,16,8,适宜,1,极易发,4,闷热,0,极热,1,最弱,1,阴,无雨,无雨,无雨,多云,多云,多云,\N,\N,\N,东南(SE),南东南(SSE),东南(SE),2级(清风),4级(树枝摇动),1级(微风徐徐),\N,\N,\N,\N,\N,\N,20220818
20220818,510800,105.843357,32.435435,四川省,广元市,\N,四川省广元市,CLOUDY,06:22,19:38,0.96,1,0.3,245.9,805.9,0,31.61,37,24,0,0,0,90779.26,91056.39,90677.05,171.45,185.8,89.42,5.8,11.45,0.68,0.86,0.97,0.67,18.54,26.98,11.35,14,18,13,较不适宜,3,极易发,4,闷热,0,很热,2,最弱,1,阴,无雨,无雨,无雨,多云,多云,多云,\N,\N,\N,南(S),南(S),东(E),1级(微风徐徐),2级(清风),0级(无风),\N,\N,\N,\N,\N,\N,20220818
20220818,510700,104.679114,31.46745,四川省,绵阳市,\N,四川省绵阳市,CLOUDY,06:28,19:42,0.96,1,0.3,256,738.9,0,31.5,36,27,0,0.04,0,94183.03,94370.32,94053.27,9.7,309.9,11.93,9.92,19.01,3.39,0.86,0.97,0.65,17.58,27.14,9.89,16,22,12,较不适宜,3,极易发,4,闷热,0,很热,2,最弱,1,阴,无雨,小雨,无雨,多云,多云,多云,\N,\N,\N,\N,西北(NW),北东北(NNE),2级(清风),3级(树叶摇摆),1级(微风徐徐),\N,\N,\N,\N,\N,\N,20220818
20220818,510600,104.397894,31.126855,四川省,德阳市,\N,四川省德阳市,LIGHT_RAIN,06:29,19:42,0.96,1,0.3,265.8,760.3,0,31.35,36,26,0.24,5.39,0,94003.55,94146.74,93874.07,27.9,339.64,41.31,9.62,19.99,1.99,0.87,0.97,0.65,16.19,25.04,8.66,15,21,10,较不适宜,3,极易发,4,闷热,0,很热,2,最弱,1,小雨,小雨,暴雨,无雨,多云,多云,多云,\N,\N,\N,北东北(NNE),北西北(NNW),东北(NE),2级(清风),3级(树叶摇摆),1级(微风徐徐),\N,\N,\N,\N,\N,\N,20220818
20220818,510500,105.442258,28.871811,四川省,泸州市,\N,四川省泸州市,PARTLY_CLOUDY_DAY,06:28,19:35,0.56,1,0.06,313.7,877.8,0,34.77,41,28,0,0,0,95901.19,96088.29,95669.81,138.09,114.62,203.48,10.04,17.31,4.61,0.53,0.79,0.3,28.42,38.45,19.71,12,20,9,较不适宜,3,极易发,4,闷热,0,极热,1,中等,3,多云（白天）,无雨,无雨,无雨,多云,多云,晴,\N,\N,\N,东南(SE),东东南(ESE),南西南(SSW),2级(清风),3级(树叶摇摆),1级(微风徐徐),\N,\N,\N,\N,\N,\N,20220818
20220818,510400,101.718637,26.582347,四川省,攀枝花市,\N,四川省攀枝花市,PARTLY_CLOUDY_DAY,06:46,19:47,0.51,1,0.13,307,934.2,0,26.98,33,22,0,0,0,83781.81,83949.29,83544.21,110.91,106.15,104.79,2.15,4.64,0.46,0.74,0.96,0.47,18.05,26.09,11.03,8,13,5,适宜,1,极易发,4,闷热,0,很热,2,弱,2,多云（白天）,无雨,无雨,无雨,多云,多云,晴,\N,\N,\N,东东南(ESE),东东南(ESE),东东南(ESE),1级(微风徐徐),1级(微风徐徐),0级(无风),\N,\N,\N,\N,\N,\N,20220818
20220818,510300,104.778442,29.33903,四川省,自贡市,\N,四川省自贡市,CLOUDY,06:30,19:38,0.89,1,0.3,207.9,662.5,0,34.79,39,28,0,0,0,95829.17,95985.29,95659.43,354.85,14.83,31.75,7.15,13.24,1.53,0.67,0.87,0.49,23.26,34.42,15.59,16,20,14,较不适宜,3,极易发,4,闷热,0,极热,1,最弱,1,阴,无雨,无雨,无雨,多云,多云,多云,\N,\N,\N,\N,北东北(NNE),北东北(NNE),2级(清风),3级(树叶摇摆),1级(微风徐徐),\N,\N,\N,\N,\N,\N,20220818
20220818,510100,104.066541,30.572269,四川省,成都市,\N,四川省成都市,LIGHT_RAIN,06:31,19:43,0.95,1,0.3,263.6,734.5,0,31.46,36,27,0.24,4.02,0,94232.64,94332.11,94092.11,28.26,5.25,25.75,9.75,18.53,4.72,0.84,0.96,0.66,17.2,24.95,7.33,15,22,11,较不适宜,3,极易发,4,闷热,0,很热,2,最弱,1,小雨,小雨,暴雨,无雨,多云,多云,多云,\N,\N,\N,北东北(NNE),\N,北东北(NNE),2级(清风),3级(树叶摇摆),1级(微风徐徐),\N,\N,\N,\N,\N,\N,20220818
20220818,500200,106.551556,29.563009,重庆市,县,\N,重庆市,PARTLY_CLOUDY_DAY,06:23,19:32,0.64,1,0.05,313.2,863.9,0,38.52,43,34,0,0,0,96179.6,96317.35,96013.36,151.94,166.57,109.17,12.12,22.23,4.11,0.45,0.64,0.27,27.57,38.72,19.52,15,16,15,适宜,1,极易发,4,闷热,0,极热,1,最弱,1,多云（白天）,无雨,无雨,无雨,多云,多云,晴,\N,\N,\N,南东南(SSE),南东南(SSE),东东南(ESE),3级(树叶摇摆),4级(树枝摇动),1级(微风徐徐),\N,\N,\N,\N,\N,\N,20220818
20220818,500000,106.551556,29.563009,重庆市,重庆市,\N,重庆市,PARTLY_CLOUDY_DAY,06:23,19:32,0.64,1,0.05,313.2,863.9,0,38.52,43,34,0,0,0,96179.6,96317.35,96013.36,151.94,166.57,109.17,12.12,22.23,4.11,0.45,0.64,0.27,27.57,38.72,19.52,15,16,15,适宜,1,极易发,4,闷热,0,极热,1,最弱,1,多云（白天）,无雨,无雨,无雨,多云,多云,晴,\N,\N,\N,南东南(SSE),南东南(SSE),东东南(ESE),3级(树叶摇摆),4级(树枝摇动),1级(微风徐徐),\N,\N,\N,\N,\N,\N,20220818
20220818,460400,109.580811,19.521134,海南省,儋州市,\N,海南省儋州市,HEAVY_RAIN,06:22,19:08,0.37,0.99,0.05,289.5,788.8,0,27.15,31,24,1.54,19.09,0,98765.83,98885.94,98615.5,236.9,274.77,140.97,6.4,12.24,0.48,0.81,0.91,0.6,9.7,15.31,4.13,8,14,3,较不适宜,3,易发,3,闷热,0,很热,2,强,4,大雨,暴雨,暴雨,无雨,多云,多云,晴,\N,\N,\N,西西南(WSW),西(W),东南(SE),2级(清风),3级(树叶摇摆),0级(无风),\N,\N,\N,\N,\N,\N,20220818
20220818,460300,112.338695,16.831839,海南省,三沙市,\N,海南省三沙市,CLOUDY,06:14,18:54,0.83,1,0.09,304.9,819.8,0,29.18,29.84,28.4,0.01,0.17,0,100514.29,100640,100400,218.45,223.13,213.96,15.66,21.86,9.36,0.75,0.81,0.71,11.57,13.69,10.04,0,0,0,较不适宜,3,易发,3,闷热,0,热,3,中等,3,阴,无雨,小雨,无雨,多云,多云,晴,\N,\N,\N,西南(SW),西南(SW),西南(SW),3级(树叶摇摆),4级(树枝摇动),2级(清风),\N,\N,\N,\N,\N,\N,20220818
20220818,460200,109.511909,18.252847,海南省,三亚市,\N,海南省三亚市,LIGHT_RAIN,06:24,19:07,0.66,1,0.04,296.5,836.2,0,27.73,31,25,0.03,0.3,0,99669.04,99825.82,99506.64,273.41,244.84,330.95,8.64,18.92,2.54,0.8,0.9,0.66,11.43,12.63,10.45,3,6,3,较不适宜,3,易发,3,闷热,0,很热,2,最弱,1,小雨,小雨,\N,无雨,多云,多云,晴,\N,\N,\N,西(W),西西南(WSW),北西北(NNW),2级(清风),3级(树叶摇摆),1级(微风徐徐),\N,\N,\N,\N,\N,\N,20220818
20220818,460100,110.198293,20.044001,海南省,海口市,\N,海南省海口市,LIGHT_RAIN,06:19,19:06,0.39,0.95,0.05,319.8,849.1,0,27.46,31,24,0.09,1.05,0,100136.51,100287.17,99967.17,254.96,293.09,241.57,10.7,16.39,6.08,0.75,0.85,0.65,11.28,16.42,8.99,8,14,3,较不适宜,3,易发,3,闷热,0,很热,2,强,4,小雨,小雨,暴雨,无雨,多云,多云,晴,\N,\N,\N,西西南(WSW),西西北(WNW),西西南(WSW),2级(清风),3级(树叶摇摆),2级(清风),\N,\N,\N,\N,\N,\N,20220818
20220818,451400,107.364711,22.376532,广西壮族自治区,崇左市,\N,广西壮族自治区崇左市,MODERATE_RAIN,06:28,19:20,0.44,0.9,0.02,251.2,751.1,0,29.62,35,26,1.01,6.96,0,98108.13,98252.89,97874.81,211.74,250.61,225.03,3.27,5.76,0.78,0.75,0.92,0.51,8.33,13.61,1.37,10,17,3,较不适宜,3,极易发,4,闷热,0,很热,2,强,4,中雨,暴雨,暴雨,无雨,多云,多云,晴,\N,\N,\N,南西南(SSW),西西南(WSW),西南(SW),1级(微风徐徐),1级(微风徐徐),0级(无风),\N,\N,\N,\N,\N,\N,20220818
20220818,451300,109.221465,23.750306,广西壮族自治区,来宾市,\N,广西壮族自治区来宾市,LIGHT_RAIN,06:19,19:14,0.46,1,0,214.7,748.3,0,29.79,35,26,0.17,3.87,0,98910.25,99045.89,98725.89,147.03,153.34,152.18,8.14,13.73,1.56,0.69,0.82,0.5,11.88,20.93,8.55,8,15,3,较不适宜,3,极易发,4,闷热,0,很热,2,强,4,小雨,小雨,暴雨,无雨,多云,多云,晴,\N,\N,\N,南东南(SSE),南东南(SSE),南东南(SSE),2级(清风),3级(树叶摇摆),1级(微风徐徐),\N,\N,\N,\N,\N,\N,20220818
20220818,451200,108.085261,24.692931,广西壮族自治区,河池市,\N,广西壮族自治区河池市,MODERATE_RAIN,06:23,19:20,0.28,0.84,0.01,294.9,809.4,0,30.77,36,26,0.58,7.54,0,96013.93,96156.43,95815.38,148.19,144.99,55.31,2.93,9.59,0.38,0.78,0.94,0.54,9.75,14.32,4.45,9,11,7,较不适宜,3,极易发,4,闷热,0,很热,2,强,4,中雨,暴雨,暴雨,无雨,多云,多云,晴,\N,\N,\N,南东南(SSE),东南(SE),东北(NE),1级(微风徐徐),2级(清风),0级(无风),\N,\N,\N,\N,\N,\N,20220818
20220818,451100,111.566694,24.403582,广西壮族自治区,贺州市,\N,广西壮族自治区贺州市,LIGHT_RAIN,06:09,19:05,0.42,1,0,276.4,741.2,0,29.75,35,26,0.19,2.61,0,96316.89,96504.55,96135.4,139.18,141.42,114.97,4.84,6.88,2.76,0.79,0.95,0.53,10.8,14.86,7.17,12,18,10,较不适宜,3,极易发,4,闷热,0,很热,2,最弱,1,小雨,小雨,暴雨,无雨,多云,多云,晴,\N,\N,\N,东南(SE),东南(SE),东东南(ESE),1级(微风徐徐),2级(清风),1级(微风徐徐),\N,\N,\N,\N,\N,\N,20220818
20220818,451000,106.618201,23.902333,广西壮族自治区,百色市,\N,广西壮族自治区百色市,LIGHT_RAIN,06:29,19:24,0.25,0.99,0,319.6,887.8,0,31.27,37,27,0.3,1.82,0,95769.8,95917.11,95533.59,130.19,131.35,185.51,2.64,6.38,0.52,0.81,0.95,0.57,9.39,12.1,6.67,11,16,9,较不适宜,3,极易发,4,闷热,0,很热,2,强,4,小雨,中雨,暴雨,无雨,多云,多云,晴,\N,\N,\N,东南(SE),东南(SE),南(S),1级(微风徐徐),2级(清风),0级(无风),\N,\N,\N,\N,\N,\N,20220818
20220818,450900,110.164756,22.636379,广西壮族自治区,玉林市,\N,广西壮族自治区玉林市,HEAVY_RAIN,06:17,19:09,0.51,1,0.03,301,834.7,0,28.12,34,25,2.9,20.27,0,98304.23,98425.76,98142.12,152.14,153.67,72.81,3.91,5.84,0.88,0.8,0.91,0.67,8.68,12.47,3.65,15,19,12,较不适宜,3,极易发,4,闷热,0,很热,2,中等,3,大雨,暴雨,暴雨,无雨,多云,多云,晴,\N,\N,\N,南东南(SSE),南东南(SSE),东东北(ENE),1级(微风徐徐),1级(微风徐徐),0级(无风),\N,\N,\N,\N,\N,\N,20220818
20220818,450800,109.598926,23.11153,广西壮族自治区,贵港市,\N,广西壮族自治区贵港市,MODERATE_RAIN,06:18,19:12,0.53,1,0.01,254.4,758.3,0,31.42,35,26,0.8,6.06,0,99089.75,99228.29,98908.29,108.21,121.13,171.48,5.02,7.21,2.1,0.76,0.88,0.59,9,13.78,1.67,11,16,7,较不适宜,3,极易发,4,闷热,0,很热,2,中等,3,中雨,暴雨,暴雨,无雨,多云,多云,晴,\N,\N,\N,东东南(ESE),东东南(ESE),南(S),1级(微风徐徐),2级(清风),1级(微风徐徐),\N,\N,\N,\N,\N,\N,20220818
20220818,652700,82.066159,44.905588,新疆维吾尔自治区,博尔塔拉蒙古自治州,\N,新疆维吾尔自治区博尔塔拉蒙古自治州,CLEAR_DAY,07:37,21:34,0.02,0.3,0,298.8,898.5,0,20.04,27,12,0,0,0,93290.44,93491.79,93070.62,115.67,111.69,358.35,8.4,14.89,0.47,0.23,0.32,0.16,37.14,47.32,26.91,17,20,13,较不适宜,3,极易发,4,温暖,4,温暖,4,强,4,晴（白天）,无雨,无雨,无雨,晴,多云,晴,\N,\N,\N,东东南(ESE),东东南(ESE),\N,2级(清风),3级(树叶摇摆),0级(无风),\N,\N,\N,\N,\N,\N,20220818
20220818,450700,108.654146,21.979933,广西壮族自治区,钦州市,\N,广西壮族自治区钦州市,HEAVY_RAIN,06:23,19:14,0.48,1,0.03,313.4,855,0,29.4,33,26,2.3,26.4,0,99983.83,100144.63,99828.59,194.14,180.19,201.62,8.67,14.45,4.98,0.75,0.9,0.56,9.35,14.4,2.67,11,18,5,较不适宜,3,易发,3,闷热,0,很热,2,强,4,大雨,暴雨,暴雨,无雨,多云,多云,晴,\N,\N,\N,南西南(SSW),南(S),南西南(SSW),2级(清风),3级(树叶摇摆),1级(微风徐徐),\N,\N,\N,\N,\N,\N,20220818
20220818,450600,108.353846,21.68686,广西壮族自治区,防城港市,\N,广西壮族自治区防城港市,HEAVY_RAIN,06:25,19:15,0.48,1,0.02,303.8,788.8,0,28.69,32,26,4.55,25.06,0,99926.84,100080.75,99769.14,206.22,176.88,216.52,10.4,14.35,7.29,0.73,0.84,0.59,8.86,12.23,1.04,6,10,3,较不适宜,3,易发,3,闷热,0,很热,2,强,4,大雨,暴雨,暴雨,无雨,多云,多云,晴,\N,\N,\N,南西南(SSW),南(S),西南(SW),2级(清风),3级(树叶摇摆),2级(清风),\N,\N,\N,\N,\N,\N,20220818
20220818,450500,109.119927,21.481254,广西壮族自治区,北海市,\N,广西壮族自治区北海市,HEAVY_RAIN,06:22,19:12,0.65,1,0.07,293.4,783.6,0,29.02,32,26,2.27,21.44,0,100299.51,100409,100130.5,212.57,220.8,224.69,11.86,14.62,8.54,0.71,0.78,0.64,9.92,12.55,1.48,8,12,5,较不适宜,3,易发,3,闷热,0,很热,2,最弱,1,大雨,暴雨,暴雨,无雨,多云,多云,晴,\N,\N,\N,南西南(SSW),西南(SW),西南(SW),2级(清风),3级(树叶摇摆),2级(清风),\N,\N,\N,\N,\N,\N,20220818
20220818,620100,103.834303,36.061089,甘肃省,兰州市,\N,甘肃省兰州市,LIGHT_RAIN,06:25,19:51,0.95,1,0.3,37,182.2,0,21.83,26,18,0.05,1.04,0,80518.68,80862.34,80115.89,48.83,52.32,145.53,11.61,20.6,4.45,0.62,0.82,0.46,23.82,36.48,15.19,24,27,21,较不适宜,3,极易发,4,温暖,4,温暖,4,最弱,1,小雨,小雨,暴雨,无雨,多云,多云,多云,\N,\N,\N,东北(NE),东北(NE),东南(SE),2级(清风),4级(树枝摇动),1级(微风徐徐),\N,\N,\N,\N,\N,\N,20220818
20220818,450400,111.279115,23.476962,广西壮族自治区,梧州市,\N,广西壮族自治区梧州市,LIGHT_RAIN,06:11,19:05,0.5,1,0.05,304.9,793,0,29.08,32.5,25,0.14,1.19,0,99194.73,99356.91,99037.77,83.21,107.3,54.89,5.37,8.87,2.83,0.84,0.97,0.67,10.54,15.23,8.23,11,18,9,较不适宜,3,极易发,4,闷热,0,很热,2,最弱,1,小雨,小雨,暴雨,无雨,多云,多云,晴,\N,\N,\N,东(E),东东南(ESE),东北(NE),1级(微风徐徐),2级(清风),1级(微风徐徐),\N,\N,\N,\N,\N,\N,20220818
20220818,620400,104.138559,36.544756,甘肃省,白银市,\N,甘肃省白银市,LIGHT_RAIN,06:23,19:51,0.95,1,0.3,21.5,71.6,0,18.39,22,16,0.05,1.11,0,81618.81,81994.25,81244.23,16.25,10.1,296.86,21.16,35.89,1.44,0.56,0.74,0.43,21.14,33.63,12.73,22,25,21,较不适宜,3,易发,3,舒适,5,凉爽,5,最弱,1,小雨,小雨,暴雨,无雨,多云,多云,多云,\N,\N,\N,北东北(NNE),\N,西西北(WNW),4级(树枝摇动),\N,1级(微风徐徐),\N,\N,\N,\N,\N,\N,20220818
20220818,450300,110.290194,25.273566,广西壮族自治区,桂林市,\N,广西壮族自治区桂林市,LIGHT_RAIN,06:13,19:11,0.29,0.99,0,294.4,753.1,0,31.53,37,27,0.3,1.66,0,97903,98036.79,97724.34,155.13,170.78,173.75,3.16,7.13,0.34,0.74,0.91,0.55,11.48,18.07,4.2,20,25,17,较不适宜,3,极易发,4,闷热,0,很热,2,中等,3,小雨,中雨,暴雨,无雨,多云,多云,晴,\N,\N,\N,南东南(SSE),南(S),南(S),1级(微风徐徐),2级(清风),0级(无风),\N,\N,\N,\N,\N,\N,20220818
20220818,450200,109.415953,24.325502,广西壮族自治区,柳州市,\N,广西壮族自治区柳州市,PARTLY_CLOUDY_DAY,06:18,19:14,0.38,1,0,270.3,769.2,0,31.54,37,28,0.02,0.25,0,98557.25,98676.03,98331.87,140.3,165.69,155.63,3.93,6.53,0.9,0.72,0.88,0.54,13.19,19.4,9.83,10,16,6,较不适宜,3,极易发,4,闷热,0,很热,2,强,4,多云（白天）,无雨,\N,无雨,多云,多云,晴,\N,\N,\N,东南(SE),南东南(SSE),南东南(SSE),1级(微风徐徐),2级(清风),0级(无风),\N,\N,\N,\N,\N,\N,20220818
20220818,130300,119.600492,39.935385,河北省,秦皇岛市,\N,河北省秦皇岛市,LIGHT_RAIN,05:15,18:55,0.95,1,0,21.3,94.6,0,23.96,26,23,0.04,0.29,0,99563.15,99869.97,98886.12,194.82,173.89,32.96,15.8,43.01,1.34,0.86,0.96,0.66,14.4,20.51,10.89,22,26,19,较不适宜,3,易发,3,温暖,4,温暖,4,最弱,1,小雨,小雨,\N,无雨,多云,多云,晴,\N,\N,\N,南西南(SSW),南(S),北东北(NNE),3级(树叶摇摆),6级(风力强劲),1级(微风徐徐),\N,\N,\N,\N,\N,\N,20220818
20220818,450100,108.366543,22.817002,广西壮族自治区,南宁市,\N,广西壮族自治区南宁市,MODERATE_RAIN,06:24,19:16,0.43,0.99,0,234.9,755,0,28.9,34,25,0.68,4.74,0,98822.59,98967.62,98604.91,127.83,145.01,92.27,7.25,10.72,2.88,0.72,0.87,0.51,9.56,15.31,1.81,7,18,3,较不适宜,3,极易发,4,闷热,0,很热,2,强,4,中雨,暴雨,暴雨,无雨,多云,多云,晴,\N,\N,\N,东南(SE),东南(SE),东(E),2级(清风),2级(清风),1级(微风徐徐),\N,\N,\N,\N,\N,\N,20220818
20220818,650400,89.189651,42.951382,新疆维吾尔自治区,吐鲁番市,\N,新疆维吾尔自治区吐鲁番市,CLEAR_DAY,07:12,21:02,0.02,0.3,0,274.5,841.7,0,26.71,34,21,0,0.05,0,98821.6,99038.27,98462.71,161.02,171.52,194.18,4.31,8.26,0.46,0.41,0.65,0.18,54.62,59.32,48.38,17,20,14,较不适宜,3,极易发,4,热,3,很热,2,强,4,晴（白天）,无雨,小雨,无雨,晴,多云,晴,\N,\N,\N,南东南(SSE),南(S),南西南(SSW),1级(微风徐徐),2级(清风),0级(无风),\N,\N,\N,\N,\N,\N,20220818
20220818,445300,112.044491,22.915094,广东省,云浮市,\N,广东省云浮市,MODERATE_RAIN,06:09,19:02,0.51,1,0.06,279.7,709.6,0,27.81,32,24,1.3,8.8,0,98150.81,98307.33,97992.17,92.91,85.66,90.39,6.12,9.46,3.46,0.86,0.97,0.69,7.93,13.1,0.14,13,19,9,较不适宜,3,极易发,4,闷热,0,很热,2,最弱,1,中雨,暴雨,暴雨,无雨,多云,多云,晴,\N,\N,\N,东(E),东(E),东(E),2级(清风),2级(清风),1级(微风徐徐),\N,\N,\N,\N,\N,\N,20220818
20220818,445200,116.372831,23.549993,广东省,揭阳市,\N,广东省揭阳市,CLOUDY,05:51,18:45,0.87,1,0.26,242.6,682.6,0,29.73,33,26,0.02,0.38,0,99786.13,99927.37,99646.95,113.54,129.89,15.04,5.89,12.7,1.1,0.8,0.93,0.63,12.43,17.51,8.82,14,20,8,较不适宜,3,易发,3,闷热,0,很热,2,最弱,1,阴,无雨,大雨,无雨,多云,多云,多云,\N,\N,\N,东东南(ESE),东南(SE),北东北(NNE),1级(微风徐徐),3级(树叶摇摆),1级(微风徐徐),\N,\N,\N,\N,\N,\N,20220818
20220818,445100,116.622603,23.65695,广东省,潮州市,\N,广东省潮州市,CLOUDY,05:50,18:44,0.82,1,0.3,264.3,693.6,0,28.33,33,25,0,0,0,99119.28,99234.25,98993.29,108.52,121.56,10.6,6.46,12.3,1.69,0.79,0.9,0.63,13.78,18.76,9.92,12,19,6,较不适宜,3,极易发,4,闷热,0,很热,2,最弱,1,阴,无雨,无雨,无雨,多云,多云,多云,\N,\N,\N,东东南(ESE),东东南(ESE),\N,2级(清风),3级(树叶摇摆),1级(微风徐徐),\N,\N,\N,\N,\N,\N,20220818
20220818,442000,113.392782,22.517645,广东省,中山市,\N,广东省中山市,LIGHT_RAIN,06:04,18:56,0.67,0.99,0.05,295.3,765.9,0,27.48,31,25,0.34,4.33,0,100194.85,100326.36,100038.25,132.32,125.04,144.53,11.02,14.85,6.91,0.74,0.89,0.56,12.14,16.38,3.74,14,20,8,较不适宜,3,易发,3,闷热,0,很热,2,最弱,1,小雨,中雨,暴雨,无雨,多云,多云,晴,\N,\N,\N,东南(SE),东南(SE),东南(SE),2级(清风),3级(树叶摇摆),2级(清风),\N,\N,\N,\N,\N,\N,20220818
20220818,441900,113.751765,23.020536,广东省,东莞市,\N,广东省东莞市,MODERATE_RAIN,06:02,18:55,0.62,1,0.05,243.2,652.2,0,29.08,31,26,0.75,17.66,0,100224.88,100378.78,100059.3,112.09,91.72,99.4,8.29,10.61,6.19,0.69,0.83,0.54,13.56,21.69,7.88,10,19,8,较不适宜,3,易发,3,闷热,0,很热,2,最弱,1,中雨,暴雨,暴雨,无雨,多云,多云,晴,\N,\N,\N,东东南(ESE),东(E),东(E),2级(清风),2级(清风),2级(清风),\N,\N,\N,\N,\N,\N,20220818
20220818,441800,113.056031,23.681763,广东省,清远市,\N,广东省清远市,HEAVY_RAIN,06:04,18:58,0.6,1,0.05,252,681.7,0,28.54,33,25,1.6,25.89,0,99285,99413.61,99115.45,126.95,136.23,137.51,5.8,9.15,1.99,0.78,0.91,0.59,9.93,17.49,1.45,9,16,6,较不适宜,3,极易发,4,闷热,0,很热,2,最弱,1,大雨,暴雨,暴雨,无雨,多云,多云,晴,\N,\N,\N,东南(SE),东南(SE),东南(SE),1级(微风徐徐),2级(清风),1级(微风徐徐),\N,\N,\N,\N,\N,\N,20220818
20220818,654200,82.980316,46.745364,新疆维吾尔自治区,塔城地区,\N,新疆维吾尔自治区塔城地区,CLEAR_DAY,07:29,21:34,0.17,0.9,0,297.5,887.9,0,17.9,25,10,0,0,0,94476.69,94677.34,94195.85,291.38,273.38,66.98,10.74,24.09,4.65,0.24,0.36,0.12,50.33,59.06,43.06,8,10,7,适宜,1,极易发,4,温暖,4,温暖,4,强,4,晴（白天）,无雨,无雨,无雨,晴,多云,晴,\N,\N,\N,西西北(WNW),西(W),东东北(ENE),2级(清风),4级(树枝摇动),1级(微风徐徐),\N,\N,\N,\N,\N,\N,20220818
20220818,441700,111.982232,21.857958,广东省,阳江市,\N,广东省阳江市,HEAVY_RAIN,06:10,19:01,0.65,1,0.15,300.9,790.4,0,26.54,29,24,2.69,25.38,0,99974.44,100102.57,99856.89,132.04,156.34,139.14,7.83,12.6,3.92,0.83,0.92,0.74,9.74,13.14,2.52,11,14,8,较不适宜,3,易发,3,热,3,很热,2,最弱,1,大雨,暴雨,暴雨,无雨,多云,多云,晴,\N,\N,\N,东南(SE),南东南(SSE),东南(SE),2级(清风),3级(树叶摇摆),1级(微风徐徐),\N,\N,\N,\N,\N,\N,20220818
20220818,441600,114.700447,23.743538,广东省,河源市,\N,广东省河源市,LIGHT_RAIN,05:57,18:52,0.85,1,0.11,228.7,717.7,0,29.17,34,26,0.03,0.41,0,98565.93,98718.74,98415.85,161.39,168.16,141.37,4.16,8.47,1.28,0.8,0.95,0.55,11.81,18.6,5.47,11,20,8,较不适宜,3,极易发,4,闷热,0,很热,2,最弱,1,小雨,小雨,大雨,无雨,多云,多云,晴,\N,\N,\N,南东南(SSE),南东南(SSE),东南(SE),1级(微风徐徐),2级(清风),1级(微风徐徐),\N,\N,\N,\N,\N,\N,20220818
20220818,441500,115.375278,22.786211,广东省,汕尾市,\N,广东省汕尾市,LIGHT_RAIN,05:56,18:48,0.81,1,0.05,284.7,733.7,0,29.04,32,26,0.11,1.69,0,100168.67,100289.38,100049.38,112.55,115.16,86.37,11.15,14.56,7.82,0.74,0.78,0.68,11.97,14.09,9.34,5,11,3,较不适宜,3,易发,3,闷热,0,很热,2,最弱,1,小雨,小雨,暴雨,无雨,多云,多云,晴,\N,\N,\N,东东南(ESE),东东南(ESE),东(E),2级(清风),3级(树叶摇摆),2级(清风),\N,\N,\N,\N,\N,\N,20220818
20220818,654000,81.324136,43.916823,新疆维吾尔自治区,伊犁哈萨克自治州,\N,新疆维吾尔自治区伊犁哈萨克自治州,CLEAR_DAY,07:41,21:35,0.06,0.39,0,286,878.1,0,22.23,30,13,0,0.05,0,92326.48,92529.94,91969.94,301.63,264.66,313.45,11.45,22.97,2.9,0.18,0.25,0.11,45.98,58.32,31.33,15,17,14,较不适宜,3,极易发,4,热,3,热,3,中等,3,晴（白天）,无雨,小雨,无雨,晴,多云,晴,\N,\N,\N,西西北(WNW),西(W),西北(NW),2级(清风),4级(树枝摇动),1级(微风徐徐),\N,\N,\N,\N,\N,\N,20220818
20220818,441400,116.122238,24.288615,广东省,梅州市,\N,广东省梅州市,PARTLY_CLOUDY_DAY,05:51,18:47,0.66,1,0.09,231.7,699.9,0,29.77,35,25,0,0.07,0,97400.56,97533.91,97246.99,143.39,166.9,110.93,4.62,8.53,1.52,0.74,0.92,0.51,14.07,20.27,9.33,14,20,9,较不适宜,3,极易发,4,闷热,0,很热,2,弱,2,多云（白天）,无雨,小雨,无雨,多云,多云,晴,\N,\N,\N,东南(SE),南东南(SSE),东东南(ESE),1级(微风徐徐),2级(清风),1级(微风徐徐),\N,\N,\N,\N,\N,\N,20220818
20220818,650500,93.514916,42.818501,新疆维吾尔自治区,哈密市,\N,新疆维吾尔自治区哈密市,CLEAR_DAY,06:55,20:44,0.06,0.7,0,294.5,875.4,0,22.81,30,14,0,0,0,92000.49,92188.59,91755.89,238.94,262.56,138.95,12.76,22.68,5.37,0.36,0.62,0.15,57.74,60,52.03,12,15,11,较不适宜,3,极易发,4,热,3,热,3,强,4,晴（白天）,无雨,无雨,无雨,晴,多云,晴,\N,\N,\N,西西南(WSW),西(W),东南(SE),3级(树叶摇摆),4级(树枝摇动),1级(微风徐徐),\N,\N,\N,\N,\N,\N,20220818
20220818,441300,114.416196,23.111847,广东省,惠州市,\N,广东省惠州市,MODERATE_RAIN,05:59,18:52,0.75,1,0.05,274.7,700.6,0,27.65,32,24,0.49,3.36,0,99548.46,99686.4,99402.19,126.97,134.46,139.61,6.25,9.44,2.85,0.81,0.93,0.65,11.16,17.14,2.74,14,20,9,较不适宜,3,极易发,4,闷热,0,很热,2,最弱,1,中雨,暴雨,暴雨,无雨,多云,多云,晴,\N,\N,\N,东南(SE),东南(SE),东南(SE),2级(清风),2级(清风),1级(微风徐徐),\N,\N,\N,\N,\N,\N,20220818
20220818,441200,112.465091,23.047191,广东省,肇庆市,\N,广东省肇庆市,HEAVY_RAIN,06:07,19:00,0.64,1,0.06,290.2,744.9,0,28.44,32,25,1.76,13.46,0,99371.53,99500.19,99180.19,92.87,85.27,77.11,5.72,8.98,3.32,0.83,0.94,0.71,9.11,13.2,4.29,11,17,9,较不适宜,3,易发,3,闷热,0,很热,2,最弱,1,大雨,暴雨,暴雨,无雨,多云,多云,晴,\N,\N,\N,东(E),东(E),东东北(ENE),1级(微风徐徐),2级(清风),1级(微风徐徐),\N,\N,\N,\N,\N,\N,20220818
20220818,440900,110.925456,21.662999,广东省,茂名市,\N,广东省茂名市,MODERATE_RAIN,06:15,19:05,0.73,1,0.08,284.2,789.3,0,27.71,31,25,1.02,6.65,0,99995.77,100129.71,99829.25,148.53,124.35,311.36,5.59,11.16,1.55,0.82,0.9,0.66,9.86,13.1,2.88,10,15,6,较不适宜,3,易发,3,闷热,0,很热,2,最弱,1,中雨,暴雨,暴雨,无雨,多云,多云,晴,\N,\N,\N,南东南(SSE),东南(SE),西北(NW),1级(微风徐徐),2级(清风),1级(微风徐徐),\N,\N,\N,\N,\N,\N,20220818
20220818,440800,110.359377,21.270707,广东省,湛江市,\N,广东省湛江市,MODERATE_RAIN,06:17,19:07,0.76,1,0.16,250.1,734.7,0,26.5,30,23,0.85,15.53,0,100132.82,100262.93,99977.93,231.61,138.9,275.19,6.57,10.2,3.91,0.77,0.88,0.6,10.72,13.6,5.62,16,20,13,较不适宜,3,易发,3,闷热,0,很热,2,弱,2,中雨,暴雨,暴雨,无雨,多云,多云,晴,\N,\N,\N,西南(SW),东南(SE),西(W),2级(清风),2级(清风),1级(微风徐徐),\N,\N,\N,\N,\N,\N,20220818
20220818,440700,113.081901,22.578738,广东省,江门市,\N,广东省江门市,MODERATE_RAIN,06:05,18:57,0.55,0.97,0.05,287.3,741.5,0,29.21,31,26,0.56,6.73,0,100166.8,100308.93,100006.88,136.88,142.08,163.77,8.96,14.22,3.4,0.75,0.9,0.58,10.58,15.19,6.82,13,19,8,较不适宜,3,易发,3,闷热,0,很热,2,最弱,1,中雨,暴雨,暴雨,无雨,多云,多云,晴,\N,\N,\N,东南(SE),东南(SE),南东南(SSE),2级(清风),3级(树叶摇摆),1级(微风徐徐),\N,\N,\N,\N,\N,\N,20220818
20220818,440600,113.121416,23.021548,广东省,佛山市,\N,广东省佛山市,MODERATE_RAIN,06:04,18:57,0.63,1,0.05,231.3,606.4,0,29.71,33,26,1.27,16.36,0,100372.65,100508.81,100192.16,126.88,123.89,136.1,12.76,14.17,10.23,0.66,0.81,0.5,12.45,20.01,1.73,11,16,10,较不适宜,3,易发,3,闷热,0,很热,2,最弱,1,中雨,暴雨,暴雨,无雨,多云,多云,晴,\N,\N,\N,东南(SE),东南(SE),东南(SE),3级(树叶摇摆),3级(树叶摇摆),2级(清风),\N,\N,\N,\N,\N,\N,20220818
20220818,653200,79.922211,37.114157,新疆维吾尔自治区,和田地区,\N,新疆维吾尔自治区和田地区,PARTLY_CLOUDY_DAY,07:59,21:29,0.34,0.97,0,307.6,960.9,0,24.81,30,19,0,0,0,84898.6,85045.32,84700.16,85.7,127.77,138.4,11.12,18.21,2.63,0.22,0.33,0.12,52.24,60,34.75,3,4,3,适宜,1,极易发,4,热,3,热,3,强,4,多云（白天）,无雨,无雨,无雨,多云,多云,晴,\N,\N,\N,东(E),东南(SE),东南(SE),2级(清风),3级(树叶摇摆),1级(微风徐徐),\N,\N,\N,\N,\N,\N,20220818
20220818,440500,116.681972,23.354091,广东省,汕头市,\N,广东省汕头市,CLOUDY,05:50,18:44,0.93,1,0.3,266.3,710.4,0,30.38,34,28,0.01,0.14,0,100393.57,100515.97,100275.97,101.11,118.1,26.96,8.18,13.45,2.47,0.77,0.86,0.65,13.17,16.35,10.34,12,20,7,较不适宜,3,易发,3,闷热,0,很热,2,最弱,1,阴,无雨,小雨,无雨,多云,多云,多云,\N,\N,\N,东(E),东东南(ESE),北东北(NNE),2级(清风),3级(树叶摇摆),1级(微风徐徐),\N,\N,\N,\N,\N,\N,20220818
20220818,440400,113.576726,22.270715,广东省,珠海市,\N,广东省珠海市,LIGHT_RAIN,06:03,18:55,0.72,1,0.14,309.3,816.9,0,27.54,31,24,0.14,2.47,0,100238.48,100338.21,100093.61,135.9,126.58,141.44,13.51,17.78,10.15,0.76,0.85,0.67,11.76,13.62,9.97,6,12,3,较不适宜,3,易发,3,闷热,0,很热,2,最弱,1,小雨,小雨,暴雨,无雨,多云,多云,晴,\N,\N,\N,东南(SE),东南(SE),东南(SE),3级(树叶摇摆),3级(树叶摇摆),2级(清风),\N,\N,\N,\N,\N,\N,20220818
20220818,440300,114.057868,22.543099,广东省,深圳市,\N,广东省深圳市,LIGHT_RAIN,06:01,18:53,0.7,1,0.08,283.3,737.7,0,28.35,32,26,0.06,1.1,0,99720.9,99829.13,99578.53,125.92,152.57,110.55,9.43,13.82,7.68,0.75,0.87,0.61,11.89,16.23,9.42,7,13,3,较不适宜,3,易发,3,闷热,0,很热,2,最弱,1,小雨,小雨,暴雨,无雨,多云,多云,晴,\N,\N,\N,东南(SE),南东南(SSE),东东南(ESE),2级(清风),3级(树叶摇摆),2级(清风),\N,\N,\N,\N,\N,\N,20220818
20220818,440200,113.597522,24.810403,广东省,韶关市,\N,广东省韶关市,LIGHT_RAIN,06:00,18:58,0.41,1,0,264.4,687.4,0,30.33,35,25,0.06,0.89,0,98227.85,98379.56,98059.56,159.89,168.48,169.13,3.03,5.52,0.67,0.72,0.92,0.5,13.4,22.24,9.9,11,17,8,较不适宜,3,极易发,4,闷热,0,很热,2,中等,3,小雨,小雨,暴雨,无雨,多云,多云,晴,\N,\N,\N,南东南(SSE),南东南(SSE),南(S),1级(微风徐徐),1级(微风徐徐),0级(无风),\N,\N,\N,\N,\N,\N,20220818
20220818,440100,113.264434,23.129162,广东省,广州市,\N,广东省广州市,MODERATE_RAIN,06:04,18:57,0.62,1,0.05,240.2,640.7,0,29.25,33,25,1.39,12.06,0,100290.29,100421.69,100143.02,122.38,104.53,106.47,12.2,14.5,8.84,0.67,0.84,0.5,11.5,17.63,2.68,12,15,10,较不适宜,3,极易发,4,闷热,0,很热,2,最弱,1,中雨,暴雨,暴雨,无雨,多云,多云,晴,\N,\N,\N,东东南(ESE),东东南(ESE),东东南(ESE),3级(树叶摇摆),3级(树叶摇摆),2级(清风),\N,\N,\N,\N,\N,\N,20220818
20220818,433100,109.739172,28.311947,湖南省,湘西土家族苗族自治州,\N,湖南省湘西土家族苗族自治州,PARTLY_CLOUDY_DAY,06:12,19:17,0.31,0.96,0.04,316.2,848.4,0,33.4,39,27,0,0,0,95685.19,95871.73,95395.2,179.33,178.71,127.54,4.6,11.49,0.36,0.57,0.84,0.32,19.52,27.3,12.8,14,26,6,适宜,1,极易发,4,闷热,0,极热,1,强,4,多云（白天）,无雨,无雨,无雨,多云,多云,晴,\N,\N,\N,南(S),南(S),东南(SE),1级(微风徐徐),2级(清风),0级(无风),\N,\N,\N,\N,\N,\N,20220818
20220818,431300,111.993497,27.700062,湖南省,娄底市,\N,湖南省娄底市,PARTLY_CLOUDY_DAY,06:03,19:08,0.37,0.99,0.04,315.5,827.3,0,34.4,39,29,0,0,0,98274.81,98428.65,98091.42,172.64,155.2,179.11,7.73,18.05,1.44,0.48,0.67,0.3,21.19,28.34,13.07,38,56,29,适宜,1,极易发,4,闷热,0,极热,1,强,4,多云（白天）,无雨,无雨,无雨,多云,多云,晴,\N,\N,\N,南(S),南东南(SSE),南(S),2级(清风),3级(树叶摇摆),1级(微风徐徐),\N,\N,\N,\N,\N,\N,20220818
20220818,431200,109.998488,27.554978,湖南省,怀化市,\N,湖南省怀化市,PARTLY_CLOUDY_DAY,06:12,19:15,0.37,1,0.03,309.5,846.3,0,32.04,39,26,0,0,0,96131.6,96326.84,95846.74,181.18,131.06,180.27,5.86,12.83,3.45,0.6,0.87,0.3,15.51,22.29,10.07,15,20,12,适宜,1,极易发,4,闷热,0,极热,1,强,4,多云（白天）,无雨,无雨,无雨,多云,多云,晴,\N,\N,\N,南(S),东南(SE),南(S),1级(微风徐徐),3级(树叶摇摆),1级(微风徐徐),\N,\N,\N,\N,\N,\N,20220818
20220818,431100,111.613445,26.420394,湖南省,永州市,\N,湖南省永州市,PARTLY_CLOUDY_DAY,06:06,19:07,0.47,0.97,0.05,189.7,722.5,0,33.62,38,28,0,0,0,98241.89,98384.92,98053.36,204.89,221.79,171,7.27,9.6,5.15,0.59,0.8,0.34,17.7,27.23,12.75,29,36,25,适宜,1,极易发,4,闷热,0,极热,1,弱,2,多云（白天）,无雨,无雨,无雨,多云,多云,晴,\N,\N,\N,南西南(SSW),西南(SW),南(S),2级(清风),2级(清风),1级(微风徐徐),\N,\N,\N,\N,\N,\N,20220818
20220818,431000,113.014717,25.770509,湖南省,郴州市,\N,湖南省郴州市,PARTLY_CLOUDY_DAY,06:02,19:01,0.21,0.69,0,266.4,753.3,0,31.46,37,27,0,0,0,96087.34,96207.19,95950.13,166.13,168.09,169.93,9.24,13.3,5.91,0.6,0.82,0.36,16.47,23.4,12.43,11,17,8,适宜,1,极易发,4,闷热,0,很热,2,强,4,多云（白天）,无雨,无雨,无雨,多云,多云,晴,\N,\N,\N,南东南(SSE),南东南(SSE),南(S),2级(清风),3级(树叶摇摆),1级(微风徐徐),\N,\N,\N,\N,\N,\N,20220818
20220818,430900,112.35518,28.55386,湖南省,益阳市,\N,湖南省益阳市,PARTLY_CLOUDY_DAY,06:01,19:07,0.32,0.99,0.05,313,817.1,0,35.17,40,31,0,0,0,99398.72,99563.6,99173.59,165.63,171.5,169.15,10.6,16.72,6.26,0.47,0.68,0.29,22.95,30.82,15.84,26,37,21,适宜,1,极易发,4,闷热,0,极热,1,强,4,多云（白天）,无雨,无雨,无雨,多云,多云,晴,\N,\N,\N,南东南(SSE),南(S),南(S),2级(清风),3级(树叶摇摆),2级(清风),\N,\N,\N,\N,\N,\N,20220818
20220818,430800,110.479191,29.117096,湖南省,张家界市,\N,湖南省张家界市,PARTLY_CLOUDY_DAY,06:08,19:15,0.49,0.99,0.05,312.7,832.5,0,34,40,27,0,0,0,94410.26,94532.98,94212.98,203.42,189.13,306.5,4.22,10.73,0.8,0.61,0.91,0.35,19.64,26.85,14.02,17,30,10,适宜,1,极易发,4,闷热,0,极热,1,弱,2,多云（白天）,无雨,无雨,无雨,多云,多云,晴,\N,\N,\N,南西南(SSW),南(S),西北(NW),1级(微风徐徐),2级(清风),0级(无风),\N,\N,\N,\N,\N,\N,20220818
20220818,430700,111.698497,29.031673,湖南省,常德市,\N,湖南省常德市,PARTLY_CLOUDY_DAY,06:03,19:10,0.26,0.95,0.05,312.8,823.1,0,33.02,38,28,0,0,0,99579.61,99741.97,99325.49,188.99,169.48,214.98,9.54,15.54,2.27,0.53,0.77,0.26,23.8,31.66,15.23,15,29,8,适宜,1,极易发,4,闷热,0,极热,1,弱,2,多云（白天）,无雨,无雨,无雨,多云,多云,晴,\N,\N,\N,南(S),南(S),西南(SW),2级(清风),3级(树叶摇摆),1级(微风徐徐),\N,\N,\N,\N,\N,\N,20220818
20220818,430600,113.128958,29.357104,湖南省,岳阳市,\N,湖南省岳阳市,PARTLY_CLOUDY_DAY,05:57,19:05,0.28,0.97,0.05,310.3,803.5,0,36.25,39,31,0,0,0,99626.17,99771.53,99411.35,181.04,190.63,170.33,11.7,20.37,4.11,0.5,0.67,0.33,22.29,29.2,15.95,19,25,16,适宜,1,极易发,4,闷热,0,极热,1,强,4,多云（白天）,无雨,无雨,无雨,多云,多云,晴,\N,\N,\N,南(S),南(S),南(S),2级(清风),4级(树枝摇动),1级(微风徐徐),\N,\N,\N,\N,\N,\N,20220818
20220818,652300,87.308224,44.011182,新疆维吾尔自治区,昌吉回族自治州,\N,新疆维吾尔自治区昌吉回族自治州,CLEAR_DAY,07:17,21:11,0.02,0.3,0,280.3,860.8,0,21.85,30,12,0,0,0,93947,94117.82,93717.82,330.89,312.41,109.8,10.23,17.66,1.9,0.18,0.27,0.11,54.11,60,46.21,20,24,13,适宜,1,极易发,4,温暖,4,温暖,4,强,4,晴（白天）,无雨,无雨,无雨,晴,多云,晴,\N,\N,\N,北西北(NNW),西北(NW),东东南(ESE),2级(清风),3级(树叶摇摆),1级(微风徐徐),\N,\N,\N,\N,\N,\N,20220818
20220818,430500,111.467791,27.238892,湖南省,邵阳市,\N,湖南省邵阳市,PARTLY_CLOUDY_DAY,06:06,19:09,0.29,0.92,0.05,315.9,834.3,0,33,39,26,0,0,0,97099.73,97281.05,96884.15,167.04,145.24,237.66,7.38,16.26,1.7,0.53,0.72,0.34,19.2,26.01,12.91,32,46,25,适宜,1,极易发,4,闷热,0,极热,1,强,4,多云（白天）,无雨,无雨,无雨,多云,多云,晴,\N,\N,\N,南东南(SSE),东南(SE),西西南(WSW),2级(清风),3级(树叶摇摆),1级(微风徐徐),\N,\N,\N,\N,\N,\N,20220818
20220818,430400,112.571997,26.89323,湖南省,衡阳市,\N,湖南省衡阳市,PARTLY_CLOUDY_DAY,06:02,19:04,0.34,0.9,0.05,312,817.6,0,35.52,40,30,0,0,0,99192.8,99379.68,98969.84,170.19,141.28,180.15,8.63,13.95,4.26,0.48,0.66,0.28,20.54,28.36,14.53,26,34,19,适宜,1,极易发,4,闷热,0,极热,1,强,4,多云（白天）,无雨,无雨,无雨,多云,多云,晴,\N,\N,\N,南(S),东南(SE),南(S),2级(清风),3级(树叶摇摆),1级(微风徐徐),\N,\N,\N,\N,\N,\N,20220818
20220818,430300,112.944049,27.829738,湖南省,湘潭市,\N,湖南省湘潭市,PARTLY_CLOUDY_DAY,05:59,19:04,0.44,0.98,0.04,312.6,812.6,0,34.1,39,28,0,0,0,99433.17,99630.87,99176.39,164.29,143.16,167.53,8.49,11.82,5.25,0.45,0.66,0.27,21.63,29.22,14.73,27,38,23,适宜,1,极易发,4,闷热,0,极热,1,强,4,多云（白天）,无雨,无雨,无雨,多云,多云,晴,\N,\N,\N,南东南(SSE),东南(SE),南东南(SSE),2级(清风),2级(清风),1级(微风徐徐),\N,\N,\N,\N,\N,\N,20220818
20220818,542500,80.105804,32.501111,西藏自治区,阿里地区,\N,西藏自治区阿里地区,CLEAR_DAY,08:05,21:21,0.09,0.8,0,340.9,1065.3,0,13.54,22,7,0.01,0.3,0,58564.49,58702.21,58359.57,239.6,220.98,235.9,8.59,16.72,5.38,0.27,0.49,0.11,23.25,32.64,17.96,5,8,5,较不适宜,3,极易发,4,凉爽,6,凉爽,5,强,4,晴（白天）,无雨,\N,无雨,晴,多云,晴,\N,\N,\N,西西南(WSW),西南(SW),西南(SW),2级(清风),3级(树叶摇摆),1级(微风徐徐),\N,\N,\N,\N,\N,\N,20220818
20220818,430200,113.134002,27.82755,湖南省,株洲市,\N,湖南省株洲市,PARTLY_CLOUDY_DAY,05:59,19:03,0.45,0.98,0.05,311.9,810.6,0,34.48,39,30,0,0,0,99362.82,99569.42,99114.24,154.57,144.47,145.67,8.26,11.5,5.17,0.46,0.67,0.26,21.61,29.15,14.13,25,33,22,适宜,1,极易发,4,闷热,0,极热,1,强,4,多云（白天）,无雨,无雨,无雨,多云,多云,晴,\N,\N,\N,南东南(SSE),东南(SE),东南(SE),2级(清风),2级(清风),1级(微风徐徐),\N,\N,\N,\N,\N,\N,20220818
20220818,430100,112.938814,28.228209,湖南省,长沙市,\N,湖南省长沙市,PARTLY_CLOUDY_DAY,05:59,19:04,0.39,1,0.05,312.7,812.4,0,34.12,39,29,0,0,0,99478.07,99689.02,99233.87,156.45,163.5,134.93,9.26,13.85,4.7,0.44,0.63,0.27,22.33,30.02,15.71,31,47,23,适宜,1,极易发,4,闷热,0,极热,1,强,4,多云（白天）,无雨,无雨,无雨,多云,多云,晴,\N,\N,\N,南东南(SSE),南东南(SSE),东南(SE),2级(清风),3级(树叶摇摆),1级(微风徐徐),\N,\N,\N,\N,\N,\N,20220818
20220818,422801,109.488172,30.272156,湖北省,恩施土家族苗族自治州,\N,湖北省恩施土家族苗族自治州,PARTLY_CLOUDY_DAY,06:10,19:21,0.54,1,0.08,306.5,834.9,0,34.1,39,27,0,0,0,91724.8,91849.45,91533.24,202.48,205.66,177.92,4.55,13.99,0.46,0.66,0.91,0.37,18.7,28.82,12.31,8,10,8,适宜,1,极易发,4,闷热,0,极热,1,中等,3,多云（白天）,无雨,无雨,无雨,多云,多云,晴,\N,\N,\N,南西南(SSW),南西南(SSW),南(S),1级(微风徐徐),3级(树叶摇摆),0级(无风),\N,\N,\N,\N,\N,\N,20220818
20220818,422800,109.488172,30.272156,湖北省,恩施土家族苗族自治州,\N,湖北省恩施土家族苗族自治州,PARTLY_CLOUDY_DAY,06:10,19:21,0.54,1,0.08,306.5,834.9,0,34.1,39,27,0,0,0,91724.8,91849.45,91533.24,202.48,205.66,177.92,4.55,13.99,0.46,0.66,0.91,0.37,18.7,28.82,12.31,8,10,8,适宜,1,极易发,4,闷热,0,极热,1,中等,3,多云（白天）,无雨,无雨,无雨,多云,多云,晴,\N,\N,\N,南西南(SSW),南西南(SSW),南(S),1级(微风徐徐),3级(树叶摇摆),0级(无风),\N,\N,\N,\N,\N,\N,20220818
20220818,130500,114.504844,37.070589,河北省,邢台市,\N,河北省邢台市,CLOUDY,05:40,19:10,0.94,1,0.3,196.1,478.6,0,29.17,33,26,0.01,0.1,0,99126.73,99565,98741.74,179.31,180.48,243.68,13.79,22.87,2.46,0.81,0.96,0.64,19.98,29.22,13.33,15,30,6,较不适宜,3,易发,3,闷热,0,很热,2,最弱,1,阴,无雨,小雨,无雨,多云,多云,多云,\N,\N,\N,南(S),南(S),西西南(WSW),3级(树叶摇摆),4级(树枝摇动),1级(微风徐徐),\N,\N,\N,\N,\N,\N,20220818
20220818,421300,113.382458,31.690215,湖北省,随州市,\N,湖北省随州市,PARTLY_CLOUDY_DAY,05:53,19:07,0.6,1,0.1,305.3,783.9,0,33.78,39,29,0,0,0,98879.39,99099.91,98671.3,168.76,185.42,144.54,15.4,25.63,7.19,0.62,0.82,0.39,21.87,30.56,10.41,13,20,7,适宜,1,极易发,4,闷热,0,很热,2,最弱,1,多云（白天）,无雨,无雨,无雨,多云,多云,晴,\N,\N,\N,南(S),南(S),东南(SE),3级(树叶摇摆),4级(树枝摇动),2级(清风),\N,\N,\N,\N,\N,\N,20220818
20220818,421200,114.322492,29.841443,湖北省,咸宁市,\N,湖北省咸宁市,PARTLY_CLOUDY_DAY,05:51,19:01,0.31,0.84,0.05,289.5,769.9,0,34.75,41,30,0,0,0,98884.69,99065.97,98695.24,135.85,68.39,23.82,7.31,13.64,2.44,0.58,0.81,0.34,25.17,33.35,19.41,19,23,16,适宜,1,极易发,4,闷热,0,极热,1,强,4,多云（白天）,无雨,无雨,无雨,多云,多云,晴,\N,\N,\N,东南(SE),东东北(ENE),北东北(NNE),2级(清风),3级(树叶摇摆),1级(微风徐徐),\N,\N,\N,\N,\N,\N,20220818
20220818,421100,114.872316,30.453905,湖北省,黄冈市,\N,湖北省黄冈市,PARTLY_CLOUDY_DAY,05:48,18:59,0.52,0.99,0.08,302.3,772.5,0,33.21,38,29,0,0,0,99895.75,100076.92,99716.07,122.05,128.73,110.86,13.22,18.85,8.23,0.64,0.85,0.43,24.06,33.29,14.77,18,22,16,适宜,1,极易发,4,闷热,0,极热,1,最弱,1,多云（白天）,无雨,无雨,无雨,多云,多云,晴,\N,\N,\N,东东南(ESE),东南(SE),东东南(ESE),3级(树叶摇摆),3级(树叶摇摆),2级(清风),\N,\N,\N,\N,\N,\N,20220818
20220818,421000,112.239741,30.335165,湖北省,荆州市,\N,湖北省荆州市,PARTLY_CLOUDY_DAY,05:59,19:10,0.5,0.94,0.05,307.8,806.8,0,34.44,38,30,0,0,0,99687.69,99889.46,99462.21,173.87,184.85,225.73,13.8,24.44,2.75,0.58,0.79,0.37,23.4,32.09,14.09,13,18,11,适宜,1,极易发,4,闷热,0,极热,1,弱,2,多云（白天）,无雨,无雨,无雨,多云,多云,晴,\N,\N,\N,南(S),南(S),西南(SW),3级(树叶摇摆),4级(树枝摇动),1级(微风徐徐),\N,\N,\N,\N,\N,\N,20220818
20220818,653101,75.989755,39.4704,新疆维吾尔自治区,喀什地区,\N,新疆维吾尔自治区喀什地区,PARTLY_CLOUDY_DAY,08:11,21:48,0.34,0.99,0,278.1,879.8,0,22.6,30,17,0,0,0,85945.87,86155.17,85755.17,72.19,65.07,56.73,9.97,15.36,4.44,0.34,0.46,0.23,57.21,60,45.45,31,36,27,适宜,1,极易发,4,温暖,4,热,3,强,4,多云（白天）,无雨,无雨,无雨,多云,多云,晴,\N,\N,\N,东东北(ENE),东东北(ENE),东东北(ENE),2级(清风),3级(树叶摇摆),1级(微风徐徐),\N,\N,\N,\N,\N,\N,20220818
20220818,610900,109.029022,32.684714,陕西省,安康市,\N,陕西省安康市,PARTLY_CLOUDY_DAY,06:09,19:26,0.73,1,0.19,286.5,752,0,32.56,40,27,0,0,0,93876.14,94054.25,93576.68,104.22,276.52,144.02,3.54,6.88,1.57,0.59,0.89,0.29,20.26,30.02,13,16,21,10,较不适宜,3,极易发,4,闷热,0,极热,1,弱,2,多云（白天）,无雨,无雨,无雨,多云,多云,晴,\N,\N,\N,东东南(ESE),西(W),东南(SE),1级(微风徐徐),2级(清风),1级(微风徐徐),\N,\N,\N,\N,\N,\N,20220818
20220818,420900,113.916902,30.924568,湖北省,孝感市,\N,湖北省孝感市,CLOUDY,05:52,19:04,0.81,1,0.22,301.6,784.2,0,33.46,38,29,0,0,0,99804.98,99960.25,99586.84,166.42,204.3,171.39,12.07,18.38,6.96,0.59,0.82,0.39,21.55,30.52,11.07,18,24,11,适宜,1,极易发,4,闷热,0,极热,1,最弱,1,阴,无雨,无雨,无雨,多云,多云,多云,\N,\N,\N,南东南(SSE),南西南(SSW),南(S),3级(树叶摇摆),3级(树叶摇摆),2级(清风),\N,\N,\N,\N,\N,\N,20220818
20220818,420800,112.199265,31.035423,湖北省,荆门市,\N,湖北省荆门市,PARTLY_CLOUDY_DAY,05:58,19:11,0.77,1,0.1,306.2,804.7,0,33.12,38,28,0,0,0,98771.38,98995.88,98515.88,178.96,191.3,184.88,13.34,26.84,2.64,0.61,0.83,0.36,22.14,31.99,9.99,19,31,11,适宜,1,极易发,4,闷热,0,极热,1,最弱,1,多云（白天）,无雨,无雨,无雨,多云,多云,晴,\N,\N,\N,南(S),南西南(SSW),南(S),3级(树叶摇摆),4级(树枝摇动),1级(微风徐徐),\N,\N,\N,\N,\N,\N,20220818
20220818,420700,114.894843,30.39194,湖北省,鄂州市,\N,湖北省鄂州市,PARTLY_CLOUDY_DAY,05:48,18:59,0.49,0.98,0.07,302,773,0,33.31,38,29,0,0,0,99833.18,100004.42,99650.77,122.17,129.23,105.24,12.54,17.22,8.35,0.65,0.86,0.44,24.21,33.25,16.24,19,22,17,适宜,1,极易发,4,闷热,0,极热,1,弱,2,多云（白天）,无雨,无雨,无雨,多云,多云,晴,\N,\N,\N,东东南(ESE),东南(SE),东东南(ESE),3级(树叶摇摆),3级(树叶摇摆),2级(清风),\N,\N,\N,\N,\N,\N,20220818
20220818,420600,112.122414,32.008986,湖北省,襄阳市,\N,湖北省襄阳市,PARTLY_CLOUDY_DAY,05:57,19:13,0.68,1,0.07,305.4,798.9,0,33.21,38,28,0,0,0,98874.62,99116.75,98596.11,169.29,179.01,153.84,20.93,30.7,12.44,0.56,0.8,0.32,23.21,35.25,10.5,15,23,9,较不适宜,3,极易发,4,闷热,0,很热,2,弱,2,多云（白天）,无雨,无雨,无雨,多云,多云,晴,\N,\N,\N,南(S),南(S),南东南(SSE),4级(树枝摇动),\N,3级(树叶摇摆),\N,\N,\N,\N,\N,\N,20220818
20220818,420500,111.286471,30.691967,湖北省,宜昌市,\N,湖北省宜昌市,PARTLY_CLOUDY_DAY,06:02,19:14,0.73,1,0.05,280.9,752.7,0,32.71,37,28,0,0,0,97461.94,97698.34,97202.48,156.47,146.96,251.73,5.26,13.14,1.83,0.64,0.91,0.31,24.29,36.79,14.05,12,16,9,适宜,1,极易发,4,闷热,0,极热,1,最弱,1,多云（白天）,无雨,无雨,无雨,多云,多云,晴,\N,\N,\N,南东南(SSE),南东南(SSE),西西南(WSW),1级(微风徐徐),3级(树叶摇摆),1级(微风徐徐),\N,\N,\N,\N,\N,\N,20220818
20220818,420300,110.79799,32.629397,湖北省,十堰市,\N,湖北省十堰市,CLOUDY,06:02,19:19,0.84,1,0,258.2,720.8,0,33.38,39,29,0,0,0,94772.25,94979.82,94489.6,90.8,107.68,46.41,4.53,15.45,0.45,0.6,0.91,0.34,22.01,33.74,10.8,14,20,10,适宜,1,极易发,4,闷热,0,极热,1,最弱,1,阴,无雨,无雨,无雨,多云,多云,晴,\N,\N,\N,东(E),东东南(ESE),东北(NE),1级(微风徐徐),3级(树叶摇摆),0级(无风),\N,\N,\N,\N,\N,\N,20220818
20220818,420200,115.03852,30.199652,湖北省,黄石市,\N,湖北省黄石市,PARTLY_CLOUDY_DAY,05:48,18:59,0.36,0.85,0.05,304,772.9,0,34.19,39,30,0,0,0,99488.48,99642.13,99308.5,126.14,133.47,125.28,11.7,13.79,8.67,0.65,0.87,0.43,25.42,34.61,18.73,19,23,17,适宜,1,极易发,4,闷热,0,极热,1,弱,2,多云（白天）,无雨,无雨,无雨,多云,多云,晴,\N,\N,\N,东南(SE),东南(SE),东南(SE),2级(清风),3级(树叶摇摆),2级(清风),\N,\N,\N,\N,\N,\N,20220818
20220818,420100,114.305392,30.593098,湖北省,武汉市,\N,湖北省武汉市,PARTLY_CLOUDY_DAY,05:50,19:02,0.72,1,0.2,304.8,779.4,0,34.73,39,31,0,0,0,99865.85,100006.6,99680,146.32,187.62,127.78,11.27,14.36,7.54,0.54,0.77,0.33,24.46,32.91,14.91,19,24,15,适宜,1,极易发,4,闷热,0,极热,1,最弱,1,多云（白天）,无雨,无雨,无雨,多云,多云,多云,\N,\N,\N,南东南(SSE),南(S),东南(SE),2级(清风),3级(树叶摇摆),2级(清风),\N,\N,\N,\N,\N,\N,20220818
20220818,411700,114.022298,33.011529,河南省,驻马店市,\N,河南省驻马店市,PARTLY_CLOUDY_DAY,05:48,19:06,0.76,1,0.15,295.7,761.8,0,32.12,38,27,0,0,0,99200.67,99478.62,98995.26,175.11,200.22,128.26,14.79,24.85,7.51,0.66,0.89,0.41,21.42,32.12,13,21,29,18,较不适宜,3,极易发,4,闷热,0,极热,1,最弱,1,多云（白天）,无雨,无雨,无雨,多云,多云,晴,\N,\N,\N,南(S),南西南(SSW),东南(SE),3级(树叶摇摆),4级(树枝摇动),2级(清风),\N,\N,\N,\N,\N,\N,20220818
20220818,411600,114.696951,33.626149,河南省,周口市,\N,河南省周口市,PARTLY_CLOUDY_DAY,05:45,19:05,0.8,1,0.3,287.2,722.7,0,32.88,37,29,0,0,0,99608.46,99911.43,99382.66,163.84,189.33,127.07,15.1,21.58,10.37,0.72,0.93,0.49,21.08,29.54,12,20,30,14,较不适宜,3,极易发,4,闷热,0,很热,2,最弱,1,多云（白天）,无雨,无雨,无雨,多云,多云,多云,\N,\N,\N,南东南(SSE),南(S),东南(SE),3级(树叶摇摆),4级(树枝摇动),2级(清风),\N,\N,\N,\N,\N,\N,20220818
20220818,654300,88.141253,47.844924,新疆维吾尔自治区,阿勒泰地区,\N,新疆维吾尔自治区阿勒泰地区,PARTLY_CLOUDY_DAY,07:06,21:16,0.27,0.89,0,289.2,857.8,0,16.21,24,10,0,0,0,87574.11,87694.09,87430.41,260.65,264.29,123.41,10.67,25.55,3.76,0.28,0.38,0.2,52.65,60,44.31,7,11,5,适宜,1,极易发,4,温暖,4,温暖,4,强,4,多云（白天）,无雨,无雨,无雨,多云,多云,晴,\N,\N,\N,西(W),西(W),东东南(ESE),2级(清风),4级(树枝摇动),1级(微风徐徐),\N,\N,\N,\N,\N,\N,20220818
20220818,411500,114.091023,32.146983,河南省,信阳市,\N,河南省信阳市,PARTLY_CLOUDY_DAY,05:49,19:05,0.64,1,0.07,303,778.2,0,33.44,38,30,0,0,0,98717.61,98918.84,98500.94,182.69,193.51,172.52,12.66,23.52,3.83,0.66,0.84,0.44,22.84,30.48,13.03,19,24,15,适宜,1,极易发,4,闷热,0,极热,1,最弱,1,多云（白天）,无雨,无雨,无雨,多云,多云,晴,\N,\N,\N,南(S),南西南(SSW),南(S),3级(树叶摇摆),4级(树枝摇动),1级(微风徐徐),\N,\N,\N,\N,\N,\N,20220818
20220818,411400,115.65637,34.414172,河南省,商丘市,\N,河南省商丘市,PARTLY_CLOUDY_DAY,05:40,19:02,0.79,1,0,271.4,714.7,0,31.23,35,28,0,0,0,99643.65,99917.5,99357.5,154.83,169.79,157.88,14.87,20.21,9.8,0.74,0.89,0.61,19.16,26.16,13.76,23,31,18,较不适宜,3,易发,3,闷热,0,很热,2,最弱,1,多云（白天）,无雨,无雨,无雨,多云,多云,晴,\N,\N,\N,南东南(SSE),南(S),南东南(SSE),3级(树叶摇摆),4级(树枝摇动),2级(清风),\N,\N,\N,\N,\N,\N,20220818
20220818,411300,112.528321,32.990833,河南省,南阳市,\N,河南省南阳市,PARTLY_CLOUDY_DAY,05:54,19:12,0.7,1,0.06,298,778.5,0,31.81,36,28,0,0,0,98500.38,98760.53,98200.86,171.97,178.81,135.06,16.76,30.02,5.19,0.6,0.94,0.29,26.2,37.84,15.6,17,24,11,适宜,1,极易发,4,闷热,0,热,3,中等,3,多云（白天）,无雨,无雨,无雨,多云,多云,晴,\N,\N,\N,南(S),南(S),东南(SE),3级(树叶摇摆),\N,1级(微风徐徐),\N,\N,\N,\N,\N,\N,20220818
20220818,411200,111.200135,34.772493,河南省,三门峡市,\N,河南省三门峡市,PARTLY_CLOUDY_DAY,05:57,19:20,0.78,1,0.19,241.5,675.4,0,29.29,35,25,0,0,0,93662.64,93920.76,93343.37,125.06,115.98,128.44,13.35,18.1,10.23,0.66,0.88,0.36,24.46,32.87,15.56,28,32,26,适宜,1,极易发,4,闷热,0,很热,2,最弱,1,多云（白天）,无雨,无雨,无雨,多云,多云,晴,\N,\N,\N,东南(SE),东东南(ESE),东南(SE),3级(树叶摇摆),3级(树叶摇摆),2级(清风),\N,\N,\N,\N,\N,\N,20220818
20220818,411100,114.016539,33.581412,河南省,漯河市,\N,河南省漯河市,PARTLY_CLOUDY_DAY,05:48,19:07,0.66,1,0.11,297.7,760.1,0,32.29,38,28,0,0,0,99409.72,99711.34,99180.96,168.86,192.23,128.19,17.35,26.73,8.71,0.66,0.94,0.37,22.34,33.29,13.47,21,29,15,较不适宜,3,极易发,4,闷热,0,很热,2,中等,3,多云（白天）,无雨,无雨,无雨,多云,多云,晴,\N,\N,\N,南(S),南西南(SSW),东南(SE),3级(树叶摇摆),4级(树枝摇动),2级(清风),\N,\N,\N,\N,\N,\N,20220818
20220818,411000,113.85264,34.035506,河南省,许昌市,\N,河南省许昌市,PARTLY_CLOUDY_DAY,05:48,19:08,0.59,1,0.05,299.9,760,0,31.88,37,28,0,0,0,99190.35,99513.78,98890.6,173.4,194.16,110.47,17.93,28.29,7.76,0.62,0.94,0.32,24.47,34.51,15.32,27,35,21,较不适宜,3,极易发,4,闷热,0,热,3,中等,3,多云（白天）,无雨,无雨,无雨,多云,多云,晴,\N,\N,\N,南(S),南西南(SSW),东东南(ESE),3级(树叶摇摆),4级(树枝摇动),2级(清风),\N,\N,\N,\N,\N,\N,20220818
20220818,410900,115.029215,35.761829,河南省,濮阳市,\N,河南省濮阳市,CLOUDY,05:40,19:06,0.9,1,0,194.9,671.7,0,31.04,36,28,0,0,0,99528.47,99920.44,99129.79,168.81,163.34,156.31,18.3,25.31,9.19,0.71,0.84,0.57,20.15,27.21,13.26,24,43,16,较不适宜,3,极易发,4,闷热,0,热,3,最弱,1,阴,无雨,无雨,无雨,多云,多云,晴,\N,\N,\N,南(S),南东南(SSE),南东南(SSE),3级(树叶摇摆),4级(树枝摇动),2级(清风),\N,\N,\N,\N,\N,\N,20220818
