stat_date,adcode,lng,lat,province,city,district,formatted_address,skycon,astro_sunrise,astro_sunset,cloudrate_avg,cloudrate_max,cloudrate_min,dswrf_avg,dswrf_max,dswrf_min,temperature_avg,temperature_max,temperature_min,precipitation_avg,precipitation_max,precipitation_min,pressure_avg,pressure_max,pressure_min,wind_direction_avg,wind_direction_max,wind_direction_min,wind_speed_avg,wind_speed_max,wind_speed_min,humidity_avg,humidity_max,humidity_min,visibility_avg,visibility_max,visibility_min,pm25_avg,pm25_max,pm25_min,life_index_carwashing_desc,life_index_carwashing_index,life_index_coldrisk_desc,life_index_coldrisk_index,life_index_comfort_desc,life_index_comfort_index,life_index_dressing_desc,life_index_dressing_index,life_index_ultraviolet_desc,life_index_ultraviolet_index,skycon_desc,precipitation_avg_desc,precipitation_max_desc,precipitation_min_desc,cloudrate_avg_desc,cloudrate_max_desc,cloudrate_min_desc,pm25_avg_desc,pm25_max_desc,pm25_min_desc,wind_direction_avg_dec,wind_direction_max_dec,wind_direction_min_dec,wind_speed_avg_desc,wind_speed_max_desc,wind_speed_min_desc,temperature_08h_20h_avg,temperature_08h_20h_max,temperature_08h_20h_min,temperature_20h_32h_avg,temperature_20h_32h_max,temperature_20h_32h_min,ds
20221202,621000,107.643631,35.709077,甘肃省,庆阳市,\N,甘肃省庆阳市,PARTLY_CLOUDY_DAY,07:41,17:36,0.41,1,0,112,375.7,0,-4.92,-3,-8,0,0,0,87677.91,88083.5,87430.4,175.69,186.51,344.45,5.78,8.91,1.55,0.36,0.46,0.26,27.26,30.73,20.27,33,47,22,较不适宜,3,易发,3,湿冷,12,极冷,8,强,4,多云（白天）,无雨,无雨,无雨,多云,多云,晴,\N,\N,\N,南(S),南(S),北西北(NNW),1级(微风徐徐),2级(清风),1级(微风徐徐),\N,\N,\N,\N,\N,\N,20221202
20221202,621100,104.626282,35.580662,甘肃省,定西市,\N,甘肃省定西市,PARTLY_CLOUDY_DAY,07:53,17:48,0.58,1,0,117.9,422,0,-4.92,0,-10,0,0,0,79088.2,79287.24,78900.65,116.92,94.53,114.58,5.25,8.39,1.38,0.38,0.46,0.27,23.24,38.93,11.95,36,45,23,较适宜,2,极易发,4,湿冷,12,极冷,8,强,4,多云（白天）,无雨,无雨,无雨,多云,多云,晴,\N,\N,\N,东东南(ESE),东(E),东东南(ESE),1级(微风徐徐),2级(清风),1级(微风徐徐),\N,\N,\N,\N,\N,\N,20221202
20221202,450400,111.279115,23.476962,广西壮族自治区,梧州市,\N,广西壮族自治区梧州市,LIGHT_RAIN,07:00,17:47,0.96,1,0.3,39.2,138.9,0,6.58,8,5,0.1,0.96,0,101044.78,101341.08,100708.45,22.75,15.68,2.67,6.43,8.93,3.92,0.73,0.76,0.7,16.45,23.3,8.96,8,11,6,较不适宜,3,易发,3,湿冷,12,冷,6,最弱,1,小雨,小雨,暴雨,无雨,多云,多云,多云,\N,\N,\N,北东北(NNE),北东北(NNE),\N,2级(清风),2级(清风),1级(微风徐徐),\N,\N,\N,\N,\N,\N,20221202
20221202,621200,104.921841,33.400684,甘肃省,陇南市,\N,甘肃省陇南市,PARTLY_CLOUDY_DAY,07:46,17:52,0.32,1,0,159.2,529.1,0,3.5,8,-1,0,0,0,80552.48,80907.4,80284.88,169.03,139.41,250.24,5.88,8.37,3.25,0.62,0.81,0.46,15.71,24.27,9.65,17,22,16,适宜,1,极易发,4,湿冷,12,寒冷,7,强,4,多云（白天）,无雨,无雨,无雨,多云,多云,晴,\N,\N,\N,南(S),东南(SE),西西南(WSW),1级(微风徐徐),2级(清风),1级(微风徐徐),\N,\N,\N,\N,\N,\N,20221202
20221202,622900,103.210538,35.601182,甘肃省,临夏回族自治州,\N,甘肃省临夏回族自治州,PARTLY_CLOUDY_DAY,07:58,17:54,0.5,1,0,119.6,424.2,0,-2.44,6,-10,0,0,0,78464.43,78701.67,78269.19,17.6,24.45,80.77,4.6,8.92,1.15,0.32,0.37,0.21,29.96,46.8,17.42,25,30,21,适宜,1,极易发,4,湿冷,12,极冷,8,强,4,多云（白天）,无雨,无雨,无雨,多云,多云,晴,\N,\N,\N,北东北(NNE),北东北(NNE),东(E),1级(微风徐徐),2级(清风),1级(微风徐徐),\N,\N,\N,\N,\N,\N,20221202
20221202,622901,103.210538,35.601182,甘肃省,临夏回族自治州,\N,甘肃省临夏回族自治州,PARTLY_CLOUDY_DAY,07:58,17:54,0.5,1,0,119.6,424.2,0,-2.44,6,-10,0,0,0,78464.43,78701.67,78269.19,17.6,24.45,80.77,4.6,8.92,1.15,0.32,0.37,0.21,29.96,46.8,17.42,25,30,21,适宜,1,极易发,4,湿冷,12,极冷,8,强,4,多云（白天）,无雨,无雨,无雨,多云,多云,晴,\N,\N,\N,北东北(NNE),北东北(NNE),东(E),1级(微风徐徐),2级(清风),1级(微风徐徐),\N,\N,\N,\N,\N,\N,20221202
20221202,450500,109.119927,21.481254,广西壮族自治区,北海市,\N,广西壮族自治区北海市,WIND,07:05,18:00,0.93,1,0.3,62.4,242.7,0,7.15,9,6,0.02,0.2,0,101983.55,102249,101689,2.89,0.19,18.43,32.59,39.02,19.83,0.83,0.85,0.8,13.91,19.56,9.69,9,13,4,较不适宜,3,易发,3,湿冷,12,寒冷,7,最弱,1,大风,无雨,小雨,无雨,多云,多云,多云,\N,\N,\N,\N,\N,北东北(NNE),5级(风力强劲),6级(风力强劲),3级(树叶摇摆),\N,\N,\N,\N,\N,\N,20221202
20221202,450600,108.353846,21.68686,广西壮族自治区,防城港市,\N,广西壮族自治区防城港市,LIGHT_RAIN,07:08,18:02,0.96,1,0.3,52.7,228.6,0,9.21,11,7,0.04,0.39,0,101609.66,101898.82,101313.98,7.96,8.8,14.07,28.64,36.6,18.19,0.76,0.82,0.71,18.09,24.94,10.73,9,15,7,较不适宜,3,易发,3,寒冷,9,寒冷,7,最弱,1,小雨,小雨,大雨,无雨,多云,多云,多云,\N,\N,\N,\N,\N,北东北(NNE),4级(树枝摇动),\N,3级(树叶摇摆),\N,\N,\N,\N,\N,\N,20221202
20221202,623000,102.911027,34.983385,甘肃省,甘南藏族自治州,\N,甘肃省甘南藏族自治州,PARTLY_CLOUDY_DAY,07:58,17:56,0.53,1,0,137.9,448.2,0,-4.85,5,-12.17,0,0,0,68134.11,68340.36,67954.59,258.61,278.26,176.49,7.77,29.26,1.02,0.26,0.48,0.1,38.83,50.62,26.86,30,33,28,适宜,1,极易发,4,湿冷,12,极冷,8,强,4,多云（白天）,无雨,无雨,无雨,多云,多云,晴,\N,\N,\N,西西南(WSW),西(W),南(S),2级(清风),\N,1级(微风徐徐),\N,\N,\N,\N,\N,\N,20221202
20221202,450700,108.654146,21.979933,广西壮族自治区,钦州市,\N,广西壮族自治区钦州市,LIGHT_RAIN,07:08,18:01,0.96,1,0.3,51.6,272.4,0,8.29,10,7,0.07,0.31,0,101775.89,102064.63,101452.84,358.9,357.01,6.97,24.45,29.61,14.03,0.71,0.75,0.68,18.18,25.23,10.28,7,13,5,较不适宜,3,易发,3,寒冷,9,寒冷,7,最弱,1,小雨,小雨,\N,无雨,多云,多云,多云,\N,\N,\N,\N,\N,\N,4级(树枝摇动),\N,3级(树叶摇摆),\N,\N,\N,\N,\N,\N,20221202
20221202,630100,101.778228,36.617144,青海省,西宁市,\N,青海省西宁市,PARTLY_CLOUDY_DAY,08:07,17:57,0.4,1,0,115.8,435.3,0,-4.06,4,-12,0,0,0,74101.71,74286,73909.37,97.24,112.68,111.76,3.95,8.14,0.17,0.28,0.36,0.17,39.4,59.77,25.84,21,25,19,适宜,1,极易发,4,湿冷,12,极冷,8,强,4,多云（白天）,无雨,无雨,无雨,多云,多云,晴,\N,\N,\N,东(E),东东南(ESE),东东南(ESE),1级(微风徐徐),2级(清风),0级(无风),\N,\N,\N,\N,\N,\N,20221202
20221202,630200,102.104287,36.502039,青海省,海东市,\N,青海省海东市,PARTLY_CLOUDY_DAY,08:05,17:56,0.34,1,0,115,427.7,0,-4.06,1.44,-11.41,0,0,0,75690.32,75877.64,75501.69,76.17,96.48,29.07,6.94,15.95,1.68,0.31,0.37,0.21,43.3,59.85,30.5,31,34,30,较适宜,2,极易发,4,湿冷,12,极冷,8,强,4,多云（白天）,无雨,无雨,无雨,多云,多云,晴,\N,\N,\N,东东北(ENE),东(E),北东北(NNE),2级(清风),3级(树叶摇摆),1级(微风徐徐),\N,\N,\N,\N,\N,\N,20221202
20221202,450800,109.598926,23.11153,广西壮族自治区,贵港市,\N,广西壮族自治区贵港市,CLOUDY,07:06,17:55,0.95,1,0.3,58.3,300.2,0,6.96,9,4,0,0,0,100976.48,101286.73,100646.73,1.56,351.63,17.09,12.46,17.32,7.84,0.77,0.81,0.72,18.06,23.33,11.68,12,14,11,适宜,1,易发,3,湿冷,12,冷,6,最弱,1,阴,无雨,无雨,无雨,多云,多云,多云,\N,\N,\N,\N,\N,北东北(NNE),3级(树叶摇摆),3级(树叶摇摆),2级(清风),\N,\N,\N,\N,\N,\N,20221202
20221202,632200,100.900997,36.954413,青海省,海北藏族自治州,\N,青海省海北藏族自治州,PARTLY_CLOUDY_DAY,08:11,17:59,0.58,1,0,121.7,468,0,-7.42,3,-18,0,0,0,67426.47,67579.88,67284.53,299.4,281.52,242.07,13.38,27.6,2.86,0.29,0.4,0.22,38.06,52.72,24.13,21,25,19,适宜,1,极易发,4,刺骨的冷,11,极冷,8,强,4,多云（白天）,无雨,无雨,无雨,多云,多云,晴,\N,\N,\N,西西北(WNW),西西北(WNW),西西南(WSW),3级(树叶摇摆),4级(树枝摇动),1级(微风徐徐),\N,\N,\N,\N,\N,\N,20221202
20221202,450900,110.164756,22.636379,广西壮族自治区,玉林市,\N,广西壮族自治区玉林市,CLOUDY,07:03,17:53,0.96,1,0.3,29.6,79.8,0,6.54,8,6,0.02,0.31,0,99969.38,100237,99677,2.65,1.57,14.12,13.57,16.95,7.7,0.75,0.77,0.73,17.9,23.96,11.36,8,14,3,较不适宜,3,易发,3,湿冷,12,冷,6,最弱,1,阴,无雨,\N,无雨,多云,多云,多云,\N,\N,\N,\N,\N,北东北(NNE),3级(树叶摇摆),3级(树叶摇摆),2级(清风),\N,\N,\N,\N,\N,\N,20221202
20221202,632300,102.015248,35.519548,青海省,黄南藏族自治州,\N,青海省黄南藏族自治州,PARTLY_CLOUDY_DAY,08:03,17:59,0.6,1,0,125.2,424.1,0,0.48,8,-6,0,0,0,68302.44,68525.95,68133.77,233.73,304.28,293.1,10.53,20.79,0.84,0.19,0.28,0.1,51.83,59.83,44.45,31,34,30,较适宜,2,极易发,4,湿冷,12,寒冷,7,中等,3,多云（白天）,无雨,无雨,无雨,多云,多云,晴,\N,\N,\N,西南(SW),西北(NW),西西北(WNW),2级(清风),4级(树枝摇动),0级(无风),\N,\N,\N,\N,\N,\N,20221202
20221202,451000,106.618201,23.902333,广西壮族自治区,百色市,\N,广西壮族自治区百色市,CLOUDY,07:19,18:05,0.97,1,0.83,53.2,233.8,0,11,13,8,0,0,0,97386.34,97715.89,97035.41,96.06,125.05,126.62,1.94,3.62,0.69,0.75,0.83,0.64,29.83,37.23,21.12,22,30,19,适宜,1,易发,3,很冷,8,凉爽,5,最弱,1,阴,无雨,无雨,无雨,多云,多云,多云,\N,\N,\N,东(E),东南(SE),东南(SE),1级(微风徐徐),1级(微风徐徐),0级(无风),\N,\N,\N,\N,\N,\N,20221202
20221202,632500,100.620373,36.286437,青海省,海南藏族自治州,\N,青海省海南藏族自治州,PARTLY_CLOUDY_DAY,08:10,18:02,0.53,1,0,125.5,438.7,0,-2.79,6,-10,0,0,0,70159.67,70319.59,69988.97,226.1,239.34,202.37,3.93,9.31,0.99,0.24,0.3,0.15,50.39,59.91,37.29,20,24,19,适宜,1,极易发,4,湿冷,12,极冷,8,中等,3,多云（白天）,无雨,无雨,无雨,多云,多云,晴,\N,\N,\N,西南(SW),西西南(WSW),南西南(SSW),1级(微风徐徐),2级(清风),0级(无风),\N,\N,\N,\N,\N,\N,20221202
20221202,451100,111.566694,24.403582,广西壮族自治区,贺州市,\N,广西壮族自治区贺州市,CLOUDY,07:01,17:44,0.95,1,0.3,28.8,108.1,0,4,6,2,0.02,0.16,0,98001.27,98315.27,97696.62,340.03,342.55,332.1,8.46,11.56,6.26,0.89,0.92,0.86,16.41,22.82,12.34,7,10,3,较不适宜,3,易发,3,湿冷,12,寒冷,7,最弱,1,阴,无雨,小雨,无雨,多云,多云,多云,\N,\N,\N,北西北(NNW),北西北(NNW),北西北(NNW),2级(清风),2级(清风),2级(清风),\N,\N,\N,\N,\N,\N,20221202
20221202,632600,100.244808,34.471431,青海省,果洛藏族自治州,\N,青海省果洛藏族自治州,PARTLY_CLOUDY_DAY,08:07,18:08,0.51,1,0,157.4,547.7,0,-6.18,1.48,-17.93,0,0,0,61006.76,61142.09,60866.57,249.42,263.21,219.97,15.94,35.17,5.7,0.26,0.42,0.09,40.73,55.03,29.5,21,25,20,适宜,1,极易发,4,刺骨的冷,11,极冷,8,弱,2,多云（白天）,无雨,无雨,无雨,多云,多云,晴,\N,\N,\N,西西南(WSW),西(W),西南(SW),3级(树叶摇摆),\N,1级(微风徐徐),\N,\N,\N,\N,\N,\N,20221202
20221202,451200,108.085261,24.692931,广西壮族自治区,河池市,\N,广西壮族自治区河池市,CLOUDY,07:15,17:58,0.94,1,0.3,76.4,417,0,6.67,8,5,0,0,0,97757.15,98150.63,97389.94,11.4,344.87,117.48,5.5,8.4,2.53,0.71,0.8,0.58,24.94,31.13,20.06,11,23,7,较不适宜,3,易发,3,湿冷,12,冷,6,最弱,1,阴,无雨,无雨,无雨,多云,多云,多云,\N,\N,\N,北东北(NNE),北西北(NNW),东东南(ESE),1级(微风徐徐),2级(清风),1级(微风徐徐),\N,\N,\N,\N,\N,\N,20221202
20221202,632700,97.091934,33.011674,青海省,玉树藏族自治州,\N,青海省玉树藏族自治州,PARTLY_CLOUDY_DAY,08:17,18:24,0.33,1,0,171.7,635.5,0,-2.58,8,-13,0,0,0,60103.04,60264.99,59943.81,240.09,252.76,282.24,10.58,36.51,2.24,0.31,0.42,0.15,37.32,47.31,27.72,10,14,8,适宜,1,极易发,4,湿冷,12,极冷,8,最弱,1,多云（白天）,无雨,无雨,无雨,多云,多云,晴,\N,\N,\N,西西南(WSW),西西南(WSW),西西北(WNW),2级(清风),\N,1级(微风徐徐),\N,\N,\N,\N,\N,\N,20221202
20221202,451300,109.221465,23.750306,广西壮族自治区,来宾市,\N,广西壮族自治区来宾市,CLOUDY,07:09,17:55,0.89,1,0.23,110.3,563.3,0,6.15,8,5,0,0,0,100907.67,101267.45,100556.66,10.01,5.07,19.54,17.23,21.35,11.25,0.71,0.77,0.63,21.34,26.05,16.24,8,14,6,较不适宜,3,易发,3,湿冷,12,寒冷,7,最弱,1,阴,无雨,无雨,无雨,多云,多云,多云,\N,\N,\N,\N,\N,北东北(NNE),3级(树叶摇摆),4级(树枝摇动),2级(清风),\N,\N,\N,\N,\N,\N,20221202
20221202,632800,97.369751,37.377139,青海省,海西蒙古族藏族自治州,\N,青海省海西蒙古族藏族自治州,PARTLY_CLOUDY_DAY,08:26,18:12,0.56,1,0,120.6,413,0,-5.44,1,-11,0,0,0,66903.69,67089.93,66750.96,121.33,231.62,86.36,3.19,6.69,0.65,0.31,0.43,0.2,56.28,60,43.01,18,24,16,适宜,1,极易发,4,湿冷,12,极冷,8,中等,3,多云（白天）,无雨,无雨,无雨,多云,多云,晴,\N,\N,\N,东东南(ESE),西南(SW),东(E),1级(微风徐徐),2级(清风),0级(无风),\N,\N,\N,\N,\N,\N,20221202
20221202,632825,90.855821,38.247159,青海省,海西蒙古族藏族自治州直辖,\N,青海省海西蒙古族藏族自治州直辖,CLOUDY,08:55,18:36,0.86,1,0.14,88.4,318.7,0,-3.58,0.01,-6.75,0,0,0,69695.67,69836.39,69556.39,95.04,77.06,306.69,3.87,9.36,1.22,0.2,0.3,0.14,47.03,54.08,42.14,3,4,3,适宜,1,易发,3,湿冷,12,极冷,8,最弱,1,阴,无雨,无雨,无雨,多云,多云,晴,\N,\N,\N,东(E),东东北(ENE),西北(NW),1级(微风徐徐),2级(清风),1级(微风徐徐),\N,\N,\N,\N,\N,\N,20221202
20221202,451400,107.364711,22.376532,广西壮族自治区,崇左市,\N,广西壮族自治区崇左市,CLOUDY,07:13,18:05,0.94,1,0.3,57.8,270.9,0,10.71,13,8,0.02,0.12,0,99894.93,100213.38,99532.89,53.43,37.47,74.25,8.29,12.19,5.82,0.73,0.82,0.68,20.66,26.79,13.87,5,10,4,较不适宜,3,易发,3,很冷,8,凉爽,5,最弱,1,阴,无雨,小雨,无雨,多云,多云,多云,\N,\N,\N,东北(NE),东北(NE),东东北(ENE),2级(清风),3级(树叶摇摆),1级(微风徐徐),\N,\N,\N,\N,\N,\N,20221202
20221202,460100,110.198293,20.044001,海南省,海口市,\N,海南省海口市,CLOUDY,06:58,17:58,0.97,1,0.3,42.9,155.3,0,16.08,19,12,0,0,0,101544.7,101754.89,101327.17,18.2,8.39,28.67,20.29,24.61,15.09,0.86,0.9,0.82,11.67,14.07,10.12,13,17,11,适宜,1,易发,3,冷,7,凉爽,5,最弱,1,阴,无雨,无雨,无雨,多云,多云,多云,\N,\N,\N,北东北(NNE),\N,北东北(NNE),4级(树枝摇动),4级(树枝摇动),3级(树叶摇摆),\N,\N,\N,\N,\N,\N,20221202
20221202,640100,106.230909,38.487193,宁夏回族自治区,银川市,\N,宁夏回族自治区银川市,PARTLY_CLOUDY_DAY,07:54,17:34,0.29,0.99,0,77.3,274.3,0,-4.65,2,-11,0,0,0,88997.01,89289.8,88799.91,63.71,19.81,78.08,5.98,10.42,1.83,0.24,0.28,0.21,32.1,42.35,23.95,30,35,28,适宜,1,极易发,4,湿冷,12,极冷,8,强,4,多云（白天）,无雨,无雨,无雨,多云,多云,晴,\N,\N,\N,东东北(ENE),北东北(NNE),东东北(ENE),1级(微风徐徐),2级(清风),1级(微风徐徐),\N,\N,\N,\N,\N,\N,20221202
20221202,640200,106.383303,38.983236,宁夏回族自治区,石嘴山市,\N,宁夏回族自治区石嘴山市,PARTLY_CLOUDY_DAY,07:54,17:32,0.49,1,0,79.1,276.9,0,-6.04,2,-14,0,0,0,87191.88,87487.31,87009.82,49.87,73.89,168.51,3.14,7.57,0.67,0.24,0.32,0.17,33.52,38.27,29.44,25,41,18,较适宜,2,极易发,4,湿冷,12,极冷,8,强,4,多云（白天）,无雨,无雨,无雨,多云,多云,晴,\N,\N,\N,东北(NE),东东北(ENE),南东南(SSE),1级(微风徐徐),2级(清风),0级(无风),\N,\N,\N,\N,\N,\N,20221202
20221202,640300,106.198393,37.99746,宁夏回族自治区,吴忠市,\N,宁夏回族自治区吴忠市,PARTLY_CLOUDY_DAY,07:52,17:36,0.26,0.95,0,77,272.7,0,-3.77,3,-10,0,0,0,88908.21,89201.72,88658.88,260.71,263.91,321.03,14.99,26.97,2.2,0.28,0.33,0.21,30.95,39.47,21.69,31,39,24,较适宜,2,极易发,4,刺骨的冷,11,极冷,8,强,4,多云（白天）,无雨,无雨,无雨,多云,多云,晴,\N,\N,\N,西(W),西(W),西北(NW),3级(树叶摇摆),4级(树枝摇动),1级(微风徐徐),\N,\N,\N,\N,\N,\N,20221202
20221202,460200,109.511909,18.252847,海南省,三亚市,\N,海南省三亚市,PARTLY_CLOUDY_DAY,06:57,18:04,0.65,1,0.07,173.1,567.6,0,22.71,27,20,0,0,0,100595.33,100789.58,100309.63,45.88,36.53,73.97,9.06,15.6,4.79,0.78,0.88,0.61,13.21,15.21,12.11,10,15,5,适宜,1,易发,3,热,3,热,3,强,4,多云（白天）,无雨,无雨,无雨,多云,多云,晴,\N,\N,\N,东北(NE),东北(NE),东东北(ENE),2级(清风),3级(树叶摇摆),1级(微风徐徐),\N,\N,\N,\N,\N,\N,20221202
20221202,640400,106.24261,36.015855,宁夏回族自治区,固原市,\N,宁夏回族自治区固原市,PARTLY_CLOUDY_DAY,07:47,17:40,0.45,1,0,102.6,355.9,0,-2.52,4,-9,0,0,0,81212.98,81450.47,81045.48,258.51,324.63,142.94,6.28,12.5,1.15,0.42,0.52,0.3,24.94,33.07,18.73,27,39,19,较适宜,2,极易发,4,湿冷,12,极冷,8,强,4,多云（白天）,无雨,无雨,无雨,多云,多云,晴,\N,\N,\N,西西南(WSW),西北(NW),东南(SE),2级(清风),3级(树叶摇摆),1级(微风徐徐),\N,\N,\N,\N,\N,\N,20221202
20221202,460300,112.338695,16.831839,海南省,三沙市,\N,海南省三沙市,MODERATE_RAIN,06:44,17:55,0.94,1,0.58,198.4,551.3,0,26.1,26.34,25.84,0.46,7.74,0,101229.49,101376.9,101040,53.1,50.66,52.65,41.76,44.76,39.91,0.87,0.87,0.85,9.74,11.21,5.42,0,0,0,较不适宜,3,易发,3,温暖,4,热,3,最弱,1,中雨,大雨,暴雨,无雨,多云,多云,多云,\N,\N,\N,东北(NE),东北(NE),东北(NE),6级(风力强劲),6级(风力强劲),6级(风力强劲),\N,\N,\N,\N,\N,\N,20221202
20221202,460400,109.580811,19.521134,海南省,儋州市,\N,海南省儋州市,LIGHT_RAIN,06:59,18:02,1,1,1,26.9,77,0,16.12,18,13,0.05,0.28,0,100082.24,100306.84,99852.7,50.02,41.65,88.27,11.07,13.37,8.27,0.91,0.95,0.88,9.69,11.43,4.48,13,17,11,较不适宜,3,易发,3,凉爽,6,温暖,4,最弱,1,小雨,小雨,\N,无雨,多云,多云,多云,\N,\N,\N,东北(NE),东北(NE),东(E),2级(清风),3级(树叶摇摆),2级(清风),\N,\N,\N,\N,\N,\N,20221202
20221202,640500,105.196902,37.499972,宁夏回族自治区,中卫市,\N,宁夏回族自治区中卫市,PARTLY_CLOUDY_DAY,07:55,17:41,0.3,1,0,81.2,294.7,0,-3.79,2,-9,0,0,0,87003.33,87344.54,86784.54,314.79,273.83,27.91,7.14,12.87,1.12,0.29,0.35,0.19,32.86,40.09,26.49,27,36,20,较适宜,2,极易发,4,湿冷,12,极冷,8,强,4,多云（白天）,无雨,无雨,无雨,多云,多云,晴,\N,\N,\N,西北(NW),西(W),北东北(NNE),2级(清风),3级(树叶摇摆),1级(微风徐徐),\N,\N,\N,\N,\N,\N,20221202
20221202,650100,87.616848,43.825592,新疆维吾尔自治区,乌鲁木齐市,\N,新疆维吾尔自治区乌鲁木齐市,CLOUDY,09:24,18:33,0.94,1,0.74,65.6,313.7,0,-10.17,-8,-11,0,0,0,91340.48,91611.7,91144.58,345.2,343.78,9.63,5.29,10.88,1.46,0.93,0.97,0.86,9.48,12.75,7.26,25,55,16,较适宜,2,易发,3,湿冷,12,极冷,8,最弱,1,阴,无雨,无雨,无雨,多云,多云,多云,\N,\N,\N,北西北(NNW),北西北(NNW),\N,1级(微风徐徐),2级(清风),1级(微风徐徐),\N,\N,\N,\N,\N,\N,20221202
20221202,500000,106.551556,29.563009,重庆市,重庆市,\N,重庆市,CLOUDY,07:31,17:54,0.91,1,0.54,48.3,198.4,0,7.5,10,6,0,0,0,98597.95,99100.85,98237.35,73.63,57.88,143.74,4.63,7.41,1.31,0.68,0.74,0.59,19,24.22,13.09,20,22,19,适宜,1,易发,3,很冷,8,冷,6,最弱,1,阴,无雨,无雨,无雨,多云,多云,多云,\N,\N,\N,东东北(ENE),东东北(ENE),东南(SE),1级(微风徐徐),2级(清风),1级(微风徐徐),\N,\N,\N,\N,\N,\N,20221202
20221202,650200,84.889207,45.579888,新疆维吾尔自治区,克拉玛依市,\N,新疆维吾尔自治区克拉玛依市,CLOUDY,09:41,18:38,0.82,1,0.3,65.3,265.9,0,-10.79,-5,-14,0,0,0,97315.79,97638.73,97158.73,178.05,195.48,182.15,4.66,7.97,1.64,0.58,0.82,0.32,15.59,18.87,12.02,24,33,18,适宜,1,极易发,4,湿冷,12,极冷,8,最弱,1,阴,无雨,无雨,无雨,多云,多云,多云,\N,\N,\N,南(S),南西南(SSW),南(S),1级(微风徐徐),2级(清风),1级(微风徐徐),\N,\N,\N,\N,\N,\N,20221202
20221202,650400,89.189651,42.951382,新疆维吾尔自治区,吐鲁番市,\N,新疆维吾尔自治区吐鲁番市,PARTLY_CLOUDY_DAY,09:15,18:29,0.79,1,0.02,57,237.5,0,-8,-4,-10,0,0,0,101241.65,101383.42,101094.53,191.06,87.54,70.67,2.24,4.73,0.22,0.16,0.21,0.13,41.54,46,37.09,15,23,11,较适宜,2,易发,3,湿冷,12,极冷,8,最弱,1,多云（白天）,无雨,无雨,无雨,多云,多云,晴,\N,\N,\N,南(S),东(E),东东北(ENE),1级(微风徐徐),1级(微风徐徐),0级(无风),\N,\N,\N,\N,\N,\N,20221202
20221202,500200,106.551556,29.563009,重庆市,县,\N,重庆市,CLOUDY,07:31,17:54,0.91,1,0.54,48.3,198.4,0,7.5,10,6,0,0,0,98597.95,99100.85,98237.35,73.63,57.88,143.74,4.63,7.41,1.31,0.68,0.74,0.59,19,24.22,13.09,20,22,19,适宜,1,易发,3,很冷,8,冷,6,最弱,1,阴,无雨,无雨,无雨,多云,多云,多云,\N,\N,\N,东东北(ENE),东东北(ENE),东南(SE),1级(微风徐徐),2级(清风),1级(微风徐徐),\N,\N,\N,\N,\N,\N,20221202
20221202,510100,104.066541,30.572269,四川省,成都市,\N,四川省成都市,PARTLY_CLOUDY_DAY,07:43,18:02,0.59,1,0.05,78,296.7,0,5.27,7,4,0,0,0,96399.19,96853.84,96068.98,97.72,171.65,109.9,4.32,6.42,1.18,0.75,0.89,0.59,15.37,20.77,10.7,11,18,9,适宜,1,易发,3,湿冷,12,冷,6,弱,2,多云（白天）,无雨,无雨,无雨,多云,多云,晴,\N,\N,\N,东(E),南(S),东东南(ESE),1级(微风徐徐),2级(清风),1级(微风徐徐),\N,\N,\N,\N,\N,\N,20221202
20221202,650500,93.514916,42.818501,新疆维吾尔自治区,哈密市,\N,新疆维吾尔自治区哈密市,CLOUDY,08:57,18:12,0.96,1,0.3,72.1,300.1,0,-9.46,-4,-14,0,0,0,93390.71,93693.51,93237.59,183.95,206.81,188.57,3.97,6.91,0.61,0.2,0.26,0.14,37.1,47.28,27.49,9,12,8,适宜,1,极易发,4,湿冷,12,极冷,8,最弱,1,阴,无雨,无雨,无雨,多云,多云,多云,\N,\N,\N,南(S),南西南(SSW),南(S),1级(微风徐徐),2级(清风),0级(无风),\N,\N,\N,\N,\N,\N,20221202
20221202,652300,87.308224,44.011182,新疆维吾尔自治区,昌吉回族自治州,\N,新疆维吾尔自治区昌吉回族自治州,CLOUDY,09:26,18:33,0.95,1,0.56,67.5,339,0,-13.6,-9,-16,0,0,0,95757.26,95987.19,95586.35,38.24,349.21,22.45,3.34,7.95,0.2,0.92,0.97,0.85,3.56,9.28,0.11,44,67,31,较适宜,2,易发,3,湿冷,12,极冷,8,最弱,1,阴,无雨,无雨,无雨,多云,多云,多云,\N,\N,\N,东北(NE),\N,北东北(NNE),1级(微风徐徐),2级(清风),0级(无风),\N,\N,\N,\N,\N,\N,20221202
20221202,510300,104.778442,29.33903,四川省,自贡市,\N,四川省自贡市,CLOUDY,07:38,18:02,0.96,1,0.62,72.5,267.8,0,6.85,10,4,0,0,0,98287.78,98791.15,97905.29,44.9,18.39,208.56,4.28,7.58,1.47,0.71,0.84,0.56,15.54,19.1,9.53,17,22,15,适宜,1,易发,3,很冷,8,冷,6,最弱,1,阴,无雨,无雨,无雨,多云,多云,多云,\N,\N,\N,东北(NE),北东北(NNE),南西南(SSW),1级(微风徐徐),2级(清风),1级(微风徐徐),\N,\N,\N,\N,\N,\N,20221202
20221202,652700,82.066159,44.905588,新疆维吾尔自治区,博尔塔拉蒙古自治州,\N,新疆维吾尔自治区博尔塔拉蒙古自治州,PARTLY_CLOUDY_DAY,09:50,18:51,0.72,0.99,0.43,86.2,385.5,0,-12.19,-8,-16,0,0,0,94901.63,95152.94,94717.54,297.72,287.74,212.51,3.15,5.74,0.95,0.89,0.94,0.85,13.04,14.62,9.87,26,32,24,适宜,1,极易发,4,湿冷,12,极冷,8,最弱,1,多云（白天）,无雨,无雨,无雨,多云,多云,多云,\N,\N,\N,西西北(WNW),西西北(WNW),南西南(SSW),1级(微风徐徐),1级(微风徐徐),0级(无风),\N,\N,\N,\N,\N,\N,20221202
20221202,652800,86.145298,41.764115,新疆维吾尔自治区,巴音郭楞蒙古自治州,\N,新疆维吾尔自治区巴音郭楞蒙古自治州,PARTLY_CLOUDY_DAY,09:23,18:45,0.8,1,0.03,61.5,248.9,0,-8.38,-2,-14,0,0,0,89951.68,90155.88,89803.32,54.7,41.18,144.24,4.34,9.69,0.8,0.24,0.3,0.21,36.26,46.22,25.56,10,15,8,较适宜,2,极易发,4,湿冷,12,极冷,8,最弱,1,多云（白天）,无雨,无雨,无雨,多云,多云,晴,\N,\N,\N,东北(NE),东北(NE),东南(SE),1级(微风徐徐),2级(清风),0级(无风),\N,\N,\N,\N,\N,\N,20221202
20221202,510400,101.718637,26.582347,四川省,攀枝花市,\N,四川省攀枝花市,CLEAR_DAY,07:44,18:20,0.01,0.09,0,188.1,630.4,0,11.33,16,5,0,0,0,84217.96,84528.21,83939.26,319.02,309.33,246.05,1.89,2.96,0.28,0.66,0.86,0.39,29.26,41.07,15.83,26,41,18,适宜,1,极易发,4,很冷,8,凉爽,5,很强,5,晴（白天）,无雨,无雨,无雨,晴,晴,晴,\N,\N,\N,西北(NW),西北(NW),西西南(WSW),1级(微风徐徐),1级(微风徐徐),0级(无风),\N,\N,\N,\N,\N,\N,20221202
20221202,652900,80.260605,41.168779,新疆维吾尔自治区,阿克苏地区,\N,新疆维吾尔自治区阿克苏地区,CLOUDY,09:45,19:10,0.88,1,0.33,86.7,387.5,0,-8.48,-2,-14,0,0,0,89124.62,89407,88979.82,98.33,118.17,211.25,4.49,7.77,1.77,0.21,0.24,0.17,35.93,46.66,19.42,29,35,21,较适宜,2,极易发,4,湿冷,12,极冷,8,最弱,1,阴,无雨,无雨,无雨,多云,多云,多云,\N,\N,\N,东(E),东东南(ESE),南西南(SSW),1级(微风徐徐),2级(清风),1级(微风徐徐),\N,\N,\N,\N,\N,\N,20221202
20221202,510500,105.442258,28.871811,四川省,泸州市,\N,四川省泸州市,CLOUDY,07:34,18:00,0.84,1,0.44,99.7,365.5,0,6.96,10,5,0,0,0,98358.31,98918.27,97967.27,41.14,35.22,70.1,3.93,7.28,0.73,0.68,0.82,0.52,17.12,21.54,11.03,12,20,11,适宜,1,易发,3,很冷,8,冷,6,弱,2,阴,无雨,无雨,无雨,多云,多云,多云,\N,\N,\N,东北(NE),东北(NE),东东北(ENE),1级(微风徐徐),2级(清风),0级(无风),\N,\N,\N,\N,\N,\N,20221202
20221202,652901,80.260605,41.168779,新疆维吾尔自治区,阿克苏地区,\N,新疆维吾尔自治区阿克苏地区,CLOUDY,09:45,19:10,0.88,1,0.33,86.7,387.5,0,-8.48,-2,-14,0,0,0,89124.62,89407,88979.82,98.33,118.17,211.25,4.49,7.77,1.77,0.21,0.24,0.17,35.93,46.66,19.42,29,35,21,较适宜,2,极易发,4,湿冷,12,极冷,8,最弱,1,阴,无雨,无雨,无雨,多云,多云,多云,\N,\N,\N,东(E),东东南(ESE),南西南(SSW),1级(微风徐徐),2级(清风),1级(微风徐徐),\N,\N,\N,\N,\N,\N,20221202
20221202,510600,104.397894,31.126855,四川省,德阳市,\N,四川省德阳市,PARTLY_CLOUDY_DAY,07:43,17:59,0.67,1,0.05,59.2,200.2,0,5.33,7,4,0,0,0,96111.65,96553.47,95810.16,94.39,95.76,95.39,4.61,7.43,1.53,0.8,0.89,0.67,12.18,18.83,9.5,12,17,9,适宜,1,易发,3,湿冷,12,冷,6,最弱,1,多云（白天）,无雨,无雨,无雨,多云,多云,晴,\N,\N,\N,东(E),东(E),东(E),1级(微风徐徐),2级(清风),1级(微风徐徐),\N,\N,\N,\N,\N,\N,20221202
20221202,653000,76.167819,39.714526,新疆维吾尔自治区,克孜勒苏柯尔克孜自治州,\N,新疆维吾尔自治区克孜勒苏柯尔克孜自治州,PARTLY_CLOUDY_DAY,09:57,19:31,0.74,1,0.03,105,441.7,0,-2.15,4,-7,0,0,0,86005.42,86232.47,85862.66,129.56,101.92,175.07,4.02,7.35,1.2,0.2,0.23,0.15,43.26,47.66,38.47,33,37,31,不适宜,4,极易发,4,湿冷,12,极冷,8,中等,3,多云（白天）,无雨,无雨,无雨,多云,多云,晴,\N,\N,\N,东南(SE),东东南(ESE),南(S),1级(微风徐徐),2级(清风),1级(微风徐徐),\N,\N,\N,\N,\N,\N,20221202
20221202,510700,104.679114,31.46745,四川省,绵阳市,\N,四川省绵阳市,PARTLY_CLOUDY_DAY,07:43,17:57,0.71,1,0.05,61.7,212.9,0,4.4,6,3,0,0,0,96286.87,96708.2,95961.01,131.21,116.91,85.25,5.05,10.18,1.77,0.79,0.9,0.65,13.95,21.73,9.19,15,25,9,较不适宜,3,易发,3,湿冷,12,寒冷,7,最弱,1,多云（白天）,无雨,无雨,无雨,多云,多云,晴,\N,\N,\N,东南(SE),东东南(ESE),东(E),1级(微风徐徐),2级(清风),1级(微风徐徐),\N,\N,\N,\N,\N,\N,20221202
20221202,653100,75.989755,39.4704,新疆维吾尔自治区,喀什地区,\N,新疆维吾尔自治区喀什地区,PARTLY_CLOUDY_DAY,09:57,19:32,0.73,1,0,108.6,454.5,0,-4.27,0,-10,0,0,0,86618.13,86875.2,86478.47,125.23,101.61,74.43,4.84,8.88,0.45,0.2,0.24,0.15,44.59,51.35,38.74,38,45,34,不适宜,4,极易发,4,湿冷,12,极冷,8,中等,3,多云（白天）,无雨,无雨,无雨,多云,多云,晴,\N,\N,\N,东南(SE),东东南(ESE),东东北(ENE),1级(微风徐徐),2级(清风),0级(无风),\N,\N,\N,\N,\N,\N,20221202
20221202,510800,105.843357,32.435435,四川省,广元市,\N,四川省广元市,CLOUDY,07:40,17:51,0.86,1,0.3,69.2,273.9,0,4.54,7,2,0,0,0,92404.26,92783.52,92085.68,190.84,195.88,214.59,4.08,5.62,2.05,0.83,0.96,0.69,20.23,28.4,15.37,18,23,16,适宜,1,易发,3,湿冷,12,寒冷,7,最弱,1,阴,无雨,无雨,无雨,多云,多云,多云,\N,\N,\N,南(S),南西南(SSW),西南(SW),1级(微风徐徐),1级(微风徐徐),1级(微风徐徐),\N,\N,\N,\N,\N,\N,20221202
20221202,653101,75.989755,39.4704,新疆维吾尔自治区,喀什地区,\N,新疆维吾尔自治区喀什地区,PARTLY_CLOUDY_DAY,09:57,19:32,0.73,1,0,108.6,454.5,0,-4.27,0,-10,0,0,0,86618.13,86875.2,86478.47,125.23,101.61,74.43,4.84,8.88,0.45,0.2,0.24,0.15,44.59,51.35,38.74,38,45,34,不适宜,4,极易发,4,湿冷,12,极冷,8,中等,3,多云（白天）,无雨,无雨,无雨,多云,多云,晴,\N,\N,\N,东南(SE),东东南(ESE),东东北(ENE),1级(微风徐徐),2级(清风),0级(无风),\N,\N,\N,\N,\N,\N,20221202
20221202,653200,79.922211,37.114157,新疆维吾尔自治区,和田地区,\N,新疆维吾尔自治区和田地区,PARTLY_CLOUDY_DAY,09:35,19:23,0.72,1,0.03,130.6,534.6,0,-4.33,0,-8,0,0,0,85635.94,85781.38,85461.38,72.68,79.9,295.86,5.43,9.41,0.43,0.21,0.27,0.15,44.23,47.44,41.91,3,4,3,适宜,1,极易发,4,湿冷,12,极冷,8,最弱,1,多云（白天）,无雨,无雨,无雨,多云,多云,晴,\N,\N,\N,东东北(ENE),东(E),西西北(WNW),1级(微风徐徐),2级(清风),0级(无风),\N,\N,\N,\N,\N,\N,20221202
20221202,654000,81.324136,43.916823,新疆维吾尔自治区,伊犁哈萨克自治州,\N,新疆维吾尔自治区伊犁哈萨克自治州,CLOUDY,09:49,18:58,0.87,1,0.34,68.5,288,0,-5.52,0,-12,0.01,0.08,0,93905.12,94122.01,93660.73,62.57,74.89,259.73,5.99,10.4,0.57,0.87,0.98,0.8,9.47,12.32,8.13,8,12,6,较不适宜,3,极易发,4,湿冷,12,极冷,8,最弱,1,阴,无雨,小雨,无雨,多云,多云,多云,\N,\N,\N,东东北(ENE),东东北(ENE),西(W),1级(微风徐徐),2级(清风),0级(无风),\N,\N,\N,\N,\N,\N,20221202
20221202,510900,105.592898,30.532847,四川省,遂宁市,\N,四川省遂宁市,CLOUDY,07:37,17:56,0.97,1,0.3,22.3,69.5,0,5.71,7,4,0,0,0,98485.35,98949.91,98149.91,63.63,61.21,206.69,5.41,9.21,0.67,0.8,0.82,0.77,15,19.36,9.12,11,20,7,较不适宜,3,易发,3,湿冷,12,冷,6,最弱,1,阴,无雨,无雨,无雨,多云,多云,多云,\N,\N,\N,东东北(ENE),东东北(ENE),南西南(SSW),1级(微风徐徐),2级(清风),0级(无风),\N,\N,\N,\N,\N,\N,20221202
20221202,654200,82.980316,46.745364,新疆维吾尔自治区,塔城地区,\N,新疆维吾尔自治区塔城地区,FOG,09:52,18:41,0.96,1,0.3,71,327.4,0,-7.56,-5,-12,0.02,0.07,0,96103.61,96360.3,95960.19,34.88,29.17,84.31,4.76,6.77,0.85,0.95,0.98,0.92,10.15,11.88,8.26,3,9,3,较不适宜,3,易发,3,湿冷,12,极冷,8,最弱,1,雾,无雨,小雨,无雨,多云,多云,多云,\N,\N,\N,东北(NE),北东北(NNE),东(E),1级(微风徐徐),2级(清风),0级(无风),\N,\N,\N,\N,\N,\N,20221202
20221202,511000,105.058433,29.580228,四川省,内江市,\N,四川省内江市,CLOUDY,07:37,18:00,0.98,1,0.8,63.4,236.1,0,7.5,10,4,0,0,0,98297.19,98794.52,97914.52,44,33.49,54.17,4.76,10.07,1.09,0.75,0.85,0.59,15.2,19.6,8.91,17,22,15,较不适宜,3,易发,3,很冷,8,冷,6,最弱,1,阴,无雨,无雨,无雨,多云,多云,多云,\N,\N,\N,东北(NE),北东北(NNE),东北(NE),1级(微风徐徐),2级(清风),1级(微风徐徐),\N,\N,\N,\N,\N,\N,20221202
20221202,511100,103.765568,29.552106,四川省,乐山市,\N,四川省乐山市,PARTLY_CLOUDY_DAY,07:42,18:05,0.54,1,0.05,90.4,370.2,0,6.62,8,5,0.01,0.08,0,97619.59,98147.71,97283.34,35.5,2.56,220.5,3.1,4.72,0.2,0.75,0.92,0.56,12.72,15.55,10.62,25,31,22,较不适宜,3,易发,3,湿冷,12,冷,6,弱,2,多云（白天）,无雨,小雨,无雨,多云,多云,晴,\N,\N,\N,东北(NE),\N,西南(SW),1级(微风徐徐),1级(微风徐徐),0级(无风),\N,\N,\N,\N,\N,\N,20221202
20221202,511300,106.110698,30.837793,四川省,南充市,\N,四川省南充市,CLOUDY,07:36,17:53,0.96,1,0.3,31,104.4,0,5.85,7,4,0,0,0,98295.22,98741.1,97941.1,68.56,65.49,191.38,4.52,8.12,1.62,0.79,0.84,0.72,16.52,21.59,10.31,12,19,8,较不适宜,3,易发,3,湿冷,12,冷,6,最弱,1,阴,无雨,无雨,无雨,多云,多云,多云,\N,\N,\N,东东北(ENE),东东北(ENE),南西南(SSW),1级(微风徐徐),2级(清风),1级(微风徐徐),\N,\N,\N,\N,\N,\N,20221202
20221202,511400,103.848538,30.075439,四川省,眉山市,\N,四川省眉山市,PARTLY_CLOUDY_DAY,07:43,18:04,0.56,1,0.05,80,337.3,0,5.58,7,4,0,0,0,96953.8,97440.37,96618.36,84,59.84,133.3,4.17,6.07,0.65,0.76,0.91,0.58,15.51,18.84,11.79,16,25,12,适宜,1,易发,3,湿冷,12,冷,6,弱,2,多云（白天）,无雨,无雨,无雨,多云,多云,晴,\N,\N,\N,东(E),东东北(ENE),东南(SE),1级(微风徐徐),2级(清风),0级(无风),\N,\N,\N,\N,\N,\N,20221202
20221202,511500,104.643215,28.751768,四川省,宜宾市,\N,四川省宜宾市,PARTLY_CLOUDY_DAY,07:37,18:03,0.69,1,0.17,90,362.9,0,6.31,10,4,0,0,0,97752.59,98323.87,97363.87,10.19,19.33,115.35,3.18,6.07,0.69,0.73,0.9,0.54,16.28,20.65,13.17,14,27,11,适宜,1,易发,3,很冷,8,冷,6,弱,2,多云（白天）,无雨,无雨,无雨,多云,多云,晴,\N,\N,\N,\N,北东北(NNE),东东南(ESE),1级(微风徐徐),2级(清风),0级(无风),\N,\N,\N,\N,\N,\N,20221202
20221202,654300,88.141253,47.844924,新疆维吾尔自治区,阿勒泰地区,\N,新疆维吾尔自治区阿勒泰地区,LIGHT_SNOW,09:36,18:17,0.83,1,0.14,68.4,324.1,0,-17.08,-12,-23,0.07,0.24,0,88461.13,88744.1,88311.64,29.75,30.64,354.76,6.31,10.62,1,0.66,0.74,0.56,11.64,35.59,3.35,3,6,3,较不适宜,3,极易发,4,湿冷,12,极冷,8,弱,2,小雪,小雪,小雪,无雪,多云,多云,晴,\N,\N,\N,北东北(NNE),北东北(NNE),\N,2级(清风),2级(清风),1级(微风徐徐),\N,\N,\N,\N,\N,\N,20221202
20221202,511600,106.633212,30.455961,四川省,广安市,\N,四川省广安市,CLOUDY,07:33,17:52,0.89,1,0.3,55.6,277.2,0,6.48,8,5,0,0,0,97956.72,98426.96,97626.96,61.19,53.57,357.29,4.72,7.83,0.96,0.75,0.82,0.67,16.99,21.24,11.24,14,17,12,适宜,1,易发,3,很冷,8,冷,6,最弱,1,阴,无雨,无雨,无雨,多云,多云,多云,\N,\N,\N,东东北(ENE),东北(NE),\N,1级(微风徐徐),2级(清风),0级(无风),\N,\N,\N,\N,\N,\N,20221202
20221202,511700,107.468023,31.209571,四川省,达州市,\N,四川省达州市,PARTLY_CLOUDY_DAY,07:31,17:47,0.74,1,0.06,53,189.2,0,5.67,8,4,0,0,0,96969.06,97453.73,96595.24,85.39,68.29,143.92,1.8,3.39,0.19,0.78,0.85,0.69,20.92,24.48,16.56,15,22,10,适宜,1,易发,3,湿冷,12,冷,6,最弱,1,多云（白天）,无雨,无雨,无雨,多云,多云,晴,\N,\N,\N,东(E),东东北(ENE),东南(SE),1级(微风徐徐),1级(微风徐徐),0级(无风),\N,\N,\N,\N,\N,\N,20221202
20221202,820000,113.543028,22.186835,澳门特别行政区,澳门特别行政区,\N,澳门特别行政区,CLOUDY,06:48,17:41,0.89,1,0,85.4,255.8,0,13.98,16,10,0,0,0,101768.94,101962.01,101482.01,356.84,354.95,358.01,26.03,32.4,15.46,0.71,0.76,0.64,17.47,21.98,14.85,8,11,7,适宜,1,易发,3,寒冷,9,冷,6,最弱,1,阴,无雨,无雨,无雨,多云,多云,晴,\N,\N,\N,\N,\N,\N,4级(树枝摇动),\N,3级(树叶摇摆),\N,\N,\N,\N,\N,\N,20221202
20221202,511800,103.013261,29.980537,四川省,雅安市,\N,四川省雅安市,PARTLY_CLOUDY_DAY,07:46,18:07,0.64,1,0.06,63.9,212,0,4.33,6,3,0.01,0.15,0,91542.95,92012.21,91218.44,80.77,73.48,223.17,3.09,5.93,0.5,0.84,0.92,0.72,9.12,9.75,8.62,18,26,12,较不适宜,3,易发,3,湿冷,12,寒冷,7,最弱,1,多云（白天）,无雨,小雨,无雨,多云,多云,晴,\N,\N,\N,东(E),东东北(ENE),西南(SW),1级(微风徐徐),1级(微风徐徐),0级(无风),\N,\N,\N,\N,\N,\N,20221202
20221202,511900,106.747477,31.867903,四川省,巴中市,\N,四川省巴中市,CLOUDY,07:35,17:48,0.87,1,0.3,50.7,173.5,0,3.79,5,2,0,0,0,95532.31,95949.88,95192.16,131.34,127.52,147.28,2.57,3.72,1.56,0.82,0.92,0.7,21.99,24.24,19.06,15,22,10,较不适宜,3,易发,3,湿冷,12,寒冷,7,最弱,1,阴,无雨,无雨,无雨,多云,多云,多云,\N,\N,\N,东南(SE),东南(SE),南东南(SSE),1级(微风徐徐),1级(微风徐徐),1级(微风徐徐),\N,\N,\N,\N,\N,\N,20221202
20221202,512000,104.627636,30.128901,四川省,资阳市,\N,四川省资阳市,CLOUDY,07:40,18:01,0.93,1,0.3,38,124.1,0,5.12,7,2,0,0,0,97625.79,98117.12,97278.37,55.21,53.5,315.43,5.21,10.06,0.56,0.8,0.88,0.72,16.35,23.17,8.42,15,20,13,适宜,1,易发,3,湿冷,12,冷,6,最弱,1,阴,无雨,无雨,无雨,多云,多云,多云,\N,\N,\N,东北(NE),东北(NE),西北(NW),1级(微风徐徐),2级(清风),0级(无风),\N,\N,\N,\N,\N,\N,20221202
20221202,110000,116.407526,39.90403,北京市,北京市,\N,北京市,PARTLY_CLOUDY_DAY,07:17,16:49,0.54,1,0,78.6,242.5,0,-2.77,1,-6,0,0,0,101976.35,102509.21,101549.21,236.14,215.09,128.22,4.45,8.32,0.66,0.17,0.2,0.15,49.83,60,40.95,7,31,3,适宜,1,易发,3,湿冷,12,极冷,8,最弱,1,多云（白天）,无雨,无雨,无雨,多云,多云,晴,\N,\N,\N,西南(SW),西南(SW),东南(SE),1级(微风徐徐),2级(清风),0级(无风),\N,\N,\N,\N,\N,\N,20221202
20221202,120000,117.200983,39.084158,天津市,天津市,\N,天津市,PARTLY_CLOUDY_DAY,07:11,16:49,0.52,1,0,91.1,302.3,0,-1.25,3,-4,0,0,0,102646.02,103194.72,102154.72,218.17,209.7,261.98,10.38,18.72,1.65,0.21,0.31,0.16,48.68,56.28,40.91,31,75,9,适宜,1,易发,3,湿冷,12,极冷,8,最弱,1,多云（白天）,无雨,无雨,无雨,多云,多云,晴,\N,\N,\N,西南(SW),南西南(SSW),西(W),2级(清风),3级(树叶摇摆),1级(微风徐徐),\N,\N,\N,\N,\N,\N,20221202
20221202,513200,102.224653,31.899413,四川省,阿坝藏族羌族自治州,\N,四川省阿坝藏族羌族自治州,PARTLY_CLOUDY_DAY,07:54,18:06,0.42,1,0,169.3,597.1,0,0.1,13,-9,0,0,0,63790.72,63967.51,63601.82,203.69,264.33,211.69,7.34,15.33,2.82,0.25,0.33,0.12,49.26,59.91,39.77,16,21,14,适宜,1,极易发,4,湿冷,12,寒冷,7,强,4,多云（白天）,无雨,无雨,无雨,多云,多云,晴,\N,\N,\N,南西南(SSW),西(W),南西南(SSW),2级(清风),3级(树叶摇摆),1级(微风徐徐),\N,\N,\N,\N,\N,\N,20221202
20221202,130100,114.514859,38.042306,河北省,石家庄市,\N,河北省石家庄市,PARTLY_CLOUDY_DAY,07:19,17:02,0.3,1,0,114.2,348.3,0,-0.23,4,-4,0,0,0,101649.15,102307.99,101120.73,3.75,356.2,110.77,4.23,7.6,0.94,0.16,0.24,0.12,48.59,52.58,44.01,69,92,57,较适宜,2,极易发,4,湿冷,12,极冷,8,弱,2,多云（白天）,无雨,无雨,无雨,多云,多云,晴,\N,\N,\N,\N,\N,东东南(ESE),1级(微风徐徐),2级(清风),0级(无风),\N,\N,\N,\N,\N,\N,20221202
20221202,130200,118.180193,39.630867,河北省,唐山市,\N,河北省唐山市,PARTLY_CLOUDY_DAY,07:09,16:43,0.44,1,0,88.8,356.2,0,-3.25,3,-8,0,0,0,102428.4,102968.03,101966.15,257.32,227.85,286.94,9.91,19.87,4.3,0.23,0.32,0.16,43.36,51.07,33.47,31,44,24,适宜,1,极易发,4,湿冷,12,极冷,8,弱,2,多云（白天）,无雨,无雨,无雨,多云,多云,晴,\N,\N,\N,西西南(WSW),西南(SW),西西北(WNW),2级(清风),3级(树叶摇摆),1级(微风徐徐),\N,\N,\N,\N,\N,\N,20221202
20221202,130300,119.600492,39.935385,河北省,秦皇岛市,\N,河北省秦皇岛市,PARTLY_CLOUDY_DAY,07:04,16:37,0.54,1,0,80.8,284.8,0,-2.67,4,-9,0,0,0,101834.31,102359.01,101434.49,259.95,235.3,284.3,15.02,25.82,10.64,0.29,0.38,0.23,43.14,47.49,39,18,31,10,适宜,1,极易发,4,湿冷,12,极冷,8,最弱,1,多云（白天）,无雨,无雨,无雨,多云,多云,晴,\N,\N,\N,西(W),西南(SW),西西北(WNW),3级(树叶摇摆),4级(树枝摇动),2级(清风),\N,\N,\N,\N,\N,\N,20221202
20221202,130400,114.538961,36.625657,河北省,邯郸市,\N,河北省邯郸市,PARTLY_CLOUDY_DAY,07:16,17:06,0.24,1,0,127.5,400.5,0,0.42,6,-3,0,0,0,101722.26,102415.99,101169.58,184.21,193.52,237.5,14.86,24.75,2.27,0.28,0.37,0.15,55.03,59.44,46.33,63,81,52,较适宜,2,极易发,4,湿冷,12,寒冷,7,强,4,多云（白天）,无雨,无雨,无雨,多云,多云,晴,\N,\N,\N,南(S),南西南(SSW),西西南(WSW),3级(树叶摇摆),4级(树枝摇动),1级(微风徐徐),\N,\N,\N,\N,\N,\N,20221202
20221202,130500,114.504844,37.070589,河北省,邢台市,\N,河北省邢台市,PARTLY_CLOUDY_DAY,07:17,17:05,0.32,1,0,125.5,380.9,0,0.98,6,-4,0,0,0,101546.52,102263.29,101005.44,178.11,190.71,351.49,11.92,20.99,1.95,0.28,0.41,0.12,51.19,58.82,38.12,53,85,35,较适宜,2,极易发,4,湿冷,12,寒冷,7,中等,3,多云（白天）,无雨,无雨,无雨,多云,多云,晴,\N,\N,\N,南(S),南(S),\N,2级(清风),4级(树枝摇动),1级(微风徐徐),\N,\N,\N,\N,\N,\N,20221202
20221202,130600,115.464806,38.873891,河北省,保定市,\N,河北省保定市,PARTLY_CLOUDY_DAY,07:18,16:56,0.54,1,0,106.8,330.7,0,-2.25,3,-6,0,0,0,102219.32,102848.79,101728.79,228.38,216.78,0.17,8.96,15.09,4.83,0.23,0.33,0.19,45.81,56.32,37.56,65,80,56,较适宜,2,极易发,4,湿冷,12,极冷,8,最弱,1,多云（白天）,无雨,无雨,无雨,多云,多云,晴,\N,\N,\N,西南(SW),西南(SW),\N,2级(清风),3级(树叶摇摆),1级(微风徐徐),\N,\N,\N,\N,\N,\N,20221202
20221202,130700,114.887543,40.824418,河北省,张家口市,\N,河北省张家口市,PARTLY_CLOUDY_DAY,07:26,16:53,0.64,1,0,59.9,188.2,0,-8.35,-3,-13,0,0,0,90634.15,91066.91,90290.72,281.49,316.18,213.09,6.87,17.97,2.09,0.22,0.28,0.15,43.89,55.22,30.34,22,36,12,适宜,1,极易发,4,湿冷,12,极冷,8,最弱,1,多云（白天）,无雨,无雨,无雨,多云,多云,晴,\N,\N,\N,西西北(WNW),西北(NW),南西南(SSW),2级(清风),3级(树叶摇摆),1级(微风徐徐),\N,\N,\N,\N,\N,\N,20221202
20221202,130800,117.96241,40.954071,河北省,承德市,\N,河北省承德市,PARTLY_CLOUDY_DAY,07:14,16:40,0.46,1,0,68.4,241.9,0,-8.31,-2,-13,0,0,0,95896.5,96422.42,95464.63,264.24,272.48,263.41,4.1,9.29,0.49,0.31,0.4,0.18,40.05,50.31,33.42,38,61,19,适宜,1,极易发,4,湿冷,12,极冷,8,最弱,1,多云（白天）,无雨,无雨,无雨,多云,多云,晴,\N,\N,\N,西(W),西(W),西(W),1级(微风徐徐),2级(清风),0级(无风),\N,\N,\N,\N,\N,\N,20221202
20221202,130900,116.838834,38.304477,河北省,沧州市,\N,河北省沧州市,PARTLY_CLOUDY_DAY,07:11,16:52,0.4,1,0,114.4,368.6,0,-0.48,5,-4,0,0,0,102596.84,103206.19,102108.43,202.79,206.65,263.92,14.96,26.81,9.3,0.25,0.41,0.15,44.17,49.9,38.42,31,71,14,适宜,1,极易发,4,湿冷,12,极冷,8,弱,2,多云（白天）,无雨,无雨,无雨,多云,多云,晴,\N,\N,\N,南西南(SSW),南西南(SSW),西(W),3级(树叶摇摆),4级(树枝摇动),2级(清风),\N,\N,\N,\N,\N,\N,20221202
20221202,131000,116.683752,39.538047,河北省,廊坊市,\N,河北省廊坊市,PARTLY_CLOUDY_DAY,07:15,16:49,0.59,1,0,71,232.4,0,-3.38,2,-6,0,0,0,102451.41,103003.4,101975.57,227.62,221.55,270.1,10.05,16.17,5.11,0.24,0.31,0.2,48.39,58.84,36.56,17,52,4,适宜,1,极易发,4,湿冷,12,极冷,8,最弱,1,多云（白天）,无雨,无雨,无雨,多云,多云,晴,\N,\N,\N,西南(SW),西南(SW),西(W),2级(清风),3级(树叶摇摆),1级(微风徐徐),\N,\N,\N,\N,\N,\N,20221202
20221202,131100,115.670177,37.73892,河北省,衡水市,\N,河北省衡水市,PARTLY_CLOUDY_DAY,07:14,16:58,0.34,1,0,113.8,345.4,0,0.96,5,-3,0,0,0,102357.8,103040,101815.59,194.25,202.19,286.78,14.98,28.47,1.12,0.26,0.36,0.18,46.34,55.54,35.02,55,77,40,较适宜,2,极易发,4,湿冷,12,寒冷,7,最弱,1,多云（白天）,无雨,无雨,无雨,多云,多云,晴,\N,\N,\N,南西南(SSW),南西南(SSW),西西北(WNW),3级(树叶摇摆),4级(树枝摇动),1级(微风徐徐),\N,\N,\N,\N,\N,\N,20221202
20221202,140100,112.548879,37.87059,山西省,太原市,\N,山西省太原市,PARTLY_CLOUDY_DAY,07:27,17:10,0.27,1,0,98.6,325.8,0,-2.6,6,-9,0,0,0,90937.81,91466.17,90552.31,189.54,187.23,319.29,6.15,10.96,1.37,0.17,0.27,0.12,38.18,44.82,30.41,43,77,29,适宜,1,极易发,4,湿冷,12,极冷,8,弱,2,多云（白天）,无雨,无雨,无雨,多云,多云,晴,\N,\N,\N,南(S),南(S),西北(NW),2级(清风),2级(清风),1级(微风徐徐),\N,\N,\N,\N,\N,\N,20221202
20221202,140200,113.300129,40.076762,山西省,大同市,\N,山西省大同市,PARTLY_CLOUDY_DAY,07:30,17:01,0.78,1,0,70.9,257.1,0,-9.46,0,-19,0,0,0,88909.02,89359.02,88588.5,244.16,272.94,196.54,12.54,25.67,7.31,0.2,0.26,0.15,31.57,42.29,23.76,12,35,5,适宜,1,极易发,4,湿冷,12,极冷,8,最弱,1,多云（白天）,无雨,无雨,无雨,多云,多云,晴,\N,\N,\N,西西南(WSW),西(W),南西南(SSW),3级(树叶摇摆),4级(树枝摇动),2级(清风),\N,\N,\N,\N,\N,\N,20221202
20221202,140300,113.580519,37.856971,山西省,阳泉市,\N,山西省阳泉市,PARTLY_CLOUDY_DAY,07:23,17:06,0.31,1,0,107.8,335.8,0,-3.23,4,-10,0,0,0,90723.4,91270.42,90310.42,259.92,266.13,246.12,12.49,27.59,5.59,0.18,0.32,0.1,35.95,41.14,30.17,43,83,26,较适宜,2,极易发,4,刺骨的冷,11,极冷,8,弱,2,多云（白天）,无雨,无雨,无雨,多云,多云,晴,\N,\N,\N,西(W),西(W),西西南(WSW),3级(树叶摇摆),4级(树枝摇动),1级(微风徐徐),\N,\N,\N,\N,\N,\N,20221202
20221202,140400,113.116255,36.195386,山西省,长治市,\N,山西省长治市,PARTLY_CLOUDY_DAY,07:20,17:12,0.26,1,0,125.6,395,0,-3.17,1,-6,0,0,0,90471.26,91010.63,90122.78,205.46,222.78,205.31,10.06,17.19,2.9,0.22,0.34,0.15,39.34,44.98,30.9,38,66,26,适宜,1,易发,3,湿冷,12,极冷,8,强,4,多云（白天）,无雨,无雨,无雨,多云,多云,晴,\N,\N,\N,南西南(SSW),西南(SW),南西南(SSW),2级(清风),3级(树叶摇摆),1级(微风徐徐),\N,\N,\N,\N,\N,\N,20221202
20221202,140500,112.851831,35.490701,山西省,晋城市,\N,山西省晋城市,PARTLY_CLOUDY_DAY,07:19,17:15,0.28,1,0,128.2,402.1,0,-2.81,3,-6.5,0,0,0,92721.76,93252.74,92369.76,217.08,156.72,250.53,5.49,8.56,1.58,0.23,0.28,0.18,41.84,49.07,32.73,43,75,30,较适宜,2,极易发,4,湿冷,12,极冷,8,强,4,多云（白天）,无雨,无雨,无雨,多云,多云,晴,\N,\N,\N,西南(SW),南东南(SSE),西西南(WSW),1级(微风徐徐),2级(清风),1级(微风徐徐),\N,\N,\N,\N,\N,\N,20221202
20221202,140600,112.432825,39.331595,山西省,朔州市,\N,山西省朔州市,PARTLY_CLOUDY_DAY,07:31,17:07,0.62,1,0,84.9,291.2,0,-6.96,2,-16,0,0,0,87004.91,87422.73,86728.84,257.41,265.55,210.17,14.24,33.74,4.76,0.24,0.36,0.18,32.03,39.8,25.33,17,39,9,适宜,1,极易发,4,刺骨的冷,11,极冷,8,弱,2,多云（白天）,无雨,无雨,无雨,多云,多云,晴,\N,\N,\N,西西南(WSW),西(W),南西南(SSW),3级(树叶摇摆),\N,1级(微风徐徐),\N,\N,\N,\N,\N,\N,20221202
20221202,513300,101.96231,30.04952,四川省,甘孜藏族自治州,\N,四川省甘孜藏族自治州,CLEAR_DAY,07:50,18:11,0,0,0,191.3,637.9,0,2.06,14,-8,0,0,0,63830.31,63980.98,63694.95,262.48,263.79,171.6,9.12,13.53,1.24,0.34,0.49,0.17,38.97,50.79,29.14,22,38,16,适宜,1,极易发,4,湿冷,12,寒冷,7,强,4,晴（白天）,无雨,无雨,无雨,晴,晴,晴,\N,\N,\N,西(W),西(W),南(S),2级(清风),3级(树叶摇摆),1级(微风徐徐),\N,\N,\N,\N,\N,\N,20221202
20221202,140700,112.752694,37.687024,山西省,晋中市,\N,山西省晋中市,PARTLY_CLOUDY_DAY,07:25,17:10,0.32,1,0,100.5,334.3,0,-3.06,5,-9,0,0,0,91465.22,92011.42,91052.5,215.28,243.79,76.98,7.09,15.03,0.35,0.19,0.31,0.12,36.39,44.14,23.69,46,71,32,较适宜,2,极易发,4,湿冷,12,极冷,8,弱,2,多云（白天）,无雨,无雨,无雨,多云,多云,晴,\N,\N,\N,西南(SW),西西南(WSW),东东北(ENE),2级(清风),3级(树叶摇摆),0级(无风),\N,\N,\N,\N,\N,\N,20221202
20221202,140703,112.551357,37.421308,山西省,晋中市,\N,山西省晋中市太谷区,PARTLY_CLOUDY_DAY,07:26,17:12,0.29,1,0,107.6,337.6,0,-2.85,5,-9,0,0,0,91240.26,91769.58,90859.95,227.02,248.86,227.35,9.83,21.52,3.85,0.2,0.33,0.11,36.42,45.01,26.24,40,76,25,适宜,1,极易发,4,湿冷,12,极冷,8,弱,2,多云（白天）,无雨,无雨,无雨,多云,多云,晴,\N,\N,\N,西南(SW),西西南(WSW),西南(SW),2级(清风),4级(树枝摇动),1级(微风徐徐),\N,\N,\N,\N,\N,\N,20221202
20221202,140800,111.007528,35.026412,山西省,运城市,\N,山西省运城市,PARTLY_CLOUDY_DAY,07:26,17:24,0.5,1,0,129.6,409.7,0,-0.6,5,-5,0,0,0,96322.2,96853.31,95973.31,75.58,148.74,281.64,4.51,6.11,1.31,0.24,0.3,0.19,37.38,42.28,32.74,47,64,28,较适宜,2,极易发,4,湿冷,12,极冷,8,中等,3,多云（白天）,无雨,无雨,无雨,多云,多云,晴,\N,\N,\N,东东北(ENE),南东南(SSE),西西北(WNW),1级(微风徐徐),2级(清风),1级(微风徐徐),\N,\N,\N,\N,\N,\N,20221202
20221202,140900,112.734174,38.416663,山西省,忻州市,\N,山西省忻州市,PARTLY_CLOUDY_DAY,07:27,17:08,0.27,0.97,0,99.8,318.2,0,-4.08,3,-10,0,0,0,91369.21,91877.38,90950.8,236.03,315.57,153.78,3.52,7.45,1.03,0.2,0.28,0.14,36.53,42.18,30.19,24,55,12,较适宜,2,极易发,4,湿冷,12,极冷,8,中等,3,多云（白天）,无雨,无雨,无雨,多云,多云,晴,\N,\N,\N,西南(SW),西北(NW),南东南(SSE),1级(微风徐徐),2级(清风),1级(微风徐徐),\N,\N,\N,\N,\N,\N,20221202
20221202,141000,111.518976,36.088005,山西省,临汾市,\N,山西省临汾市,PARTLY_CLOUDY_DAY,07:26,17:19,0.27,1,0,122.7,377.6,0,-0.62,6,-5,0,0,0,95330.36,95900.02,94972.12,187.87,198.33,198.66,5.93,12.48,1.22,0.18,0.26,0.13,40.51,47.35,32.69,45,58,33,较适宜,2,极易发,4,湿冷,12,极冷,8,强,4,多云（白天）,无雨,无雨,无雨,多云,多云,晴,\N,\N,\N,南(S),南西南(SSW),南西南(SSW),1级(微风徐徐),3级(树叶摇摆),1级(微风徐徐),\N,\N,\N,\N,\N,\N,20221202
20221202,141100,111.144319,37.518314,山西省,吕梁市,\N,山西省吕梁市,PARTLY_CLOUDY_DAY,07:31,17:17,0.26,1,0,97.5,333.6,0,-2.75,4,-8,0,0,0,88474.54,88901.79,88259.31,228.02,229.43,127.15,6.91,12.49,2.84,0.2,0.32,0.12,27.84,38.53,20.48,27,39,16,适宜,1,极易发,4,湿冷,12,极冷,8,弱,2,多云（白天）,无雨,无雨,无雨,多云,多云,晴,\N,\N,\N,西南(SW),西南(SW),东南(SE),2级(清风),3级(树叶摇摆),1级(微风徐徐),\N,\N,\N,\N,\N,\N,20221202
20221202,150100,111.74918,40.842585,内蒙古自治区,呼和浩特市,\N,内蒙古自治区呼和浩特市,PARTLY_CLOUDY_DAY,07:38,17:05,0.76,1,0,65.7,237.1,0,-5.48,-1,-9.17,0,0,0,87643.8,87973.29,87363.18,280.79,262.3,83.47,7.48,17.69,1.83,0.23,0.28,0.18,30.89,38.17,25.33,9,23,5,适宜,1,极易发,4,湿冷,12,极冷,8,最弱,1,多云（白天）,无雨,无雨,无雨,多云,多云,晴,\N,\N,\N,西(W),西(W),东(E),2级(清风),3级(树叶摇摆),1级(微风徐徐),\N,\N,\N,\N,\N,\N,20221202
20221202,150200,109.840347,40.657449,内蒙古自治区,包头市,\N,内蒙古自治区包头市,PARTLY_CLOUDY_DAY,07:45,17:14,0.59,1,0,90.7,313.4,0,-9.33,-3,-15,0,0,0,88410.6,88779.61,88219.61,310.42,305.81,176.73,10.08,17.94,1.97,0.18,0.21,0.16,31.45,37.13,21.59,12,22,6,适宜,1,极易发,4,湿冷,12,极冷,8,强,4,多云（白天）,无雨,无雨,无雨,多云,多云,晴,\N,\N,\N,西北(NW),西北(NW),南(S),2级(清风),3级(树叶摇摆),1级(微风徐徐),\N,\N,\N,\N,\N,\N,20221202
20221202,150300,106.794249,39.655388,内蒙古自治区,乌海市,\N,内蒙古自治区乌海市,PARTLY_CLOUDY_DAY,07:55,17:29,0.65,1,0,84.8,298.6,0,-7.38,-1,-12,0,0,0,88113.4,88432.07,87952.07,295.29,288.96,199.86,16.08,29.99,3.06,0.24,0.35,0.14,35.76,38.54,31.2,19,30,16,适宜,1,极易发,4,刺骨的冷,11,极冷,8,中等,3,多云（白天）,无雨,无雨,无雨,多云,多云,晴,\N,\N,\N,西西北(WNW),西西北(WNW),南西南(SSW),3级(树叶摇摆),\N,1级(微风徐徐),\N,\N,\N,\N,\N,\N,20221202
20221202,150400,118.886856,42.257817,内蒙古自治区,赤峰市,\N,内蒙古自治区赤峰市,PARTLY_CLOUDY_DAY,07:14,16:33,0.5,1,0,58.6,198.3,0,-8,-2,-14,0,0,0,93901.92,94408.75,93528.75,242.18,248.75,243.88,14.14,20.99,7.44,0.28,0.42,0.14,37.73,44.43,31.81,22,41,7,适宜,1,极易发,4,刺骨的冷,11,极冷,8,最弱,1,多云（白天）,无雨,无雨,无雨,多云,多云,晴,\N,\N,\N,西西南(WSW),西西南(WSW),西西南(WSW),3级(树叶摇摆),4级(树枝摇动),2级(清风),\N,\N,\N,\N,\N,\N,20221202
20221202,150500,122.243444,43.65289,内蒙古自治区,通辽市,\N,内蒙古自治区通辽市,PARTLY_CLOUDY_DAY,07:05,16:15,0.38,1,0,81.6,271.8,0,-7.65,-3,-12,0,0,0,99946.92,100555.8,99484.73,227.79,224.81,232.15,17.32,24.24,12.98,0.35,0.51,0.17,25.56,30.73,19.9,15,31,10,适宜,1,极易发,4,刺骨的冷,11,极冷,8,最弱,1,多云（白天）,无雨,无雨,无雨,多云,多云,晴,\N,\N,\N,西南(SW),西南(SW),西南(SW),3级(树叶摇摆),4级(树枝摇动),3级(树叶摇摆),\N,\N,\N,\N,\N,\N,20221202
20221202,513400,102.267335,27.88161,四川省,凉山彝族自治州,\N,四川省凉山彝族自治州,CLEAR_DAY,07:45,18:15,0.03,0.19,0,186.5,620.6,0,11.79,22,6,0,0,0,78787.27,79032.74,78465.7,161.43,163.93,333.55,4.78,9.3,1.16,0.67,0.85,0.4,33.1,45.51,26,22,37,17,适宜,1,极易发,4,很冷,8,凉爽,5,强,4,晴（白天）,无雨,无雨,无雨,晴,晴,晴,\N,\N,\N,南东南(SSE),南东南(SSE),北西北(NNW),1级(微风徐徐),2级(清风),1级(微风徐徐),\N,\N,\N,\N,\N,\N,20221202
20221202,150600,109.781327,39.608266,内蒙古自治区,鄂尔多斯市,\N,内蒙古自治区鄂尔多斯市,PARTLY_CLOUDY_DAY,07:43,17:17,0.68,1,0,91.8,304.7,0,-8.44,-3,-14,0,0,0,86118.06,86404.62,85924.62,268.52,288.72,314.53,22.78,32.06,13.42,0.21,0.27,0.12,15.78,21.3,11.16,17,30,12,适宜,1,极易发,4,刺骨的冷,11,极冷,8,中等,3,多云（白天）,无雨,无雨,无雨,多云,多云,晴,\N,\N,\N,西(W),西西北(WNW),西北(NW),4级(树枝摇动),\N,3级(树叶摇摆),\N,\N,\N,\N,\N,\N,20221202
20221202,150700,119.765744,49.211574,内蒙古自治区,呼伦贝尔市,\N,内蒙古自治区呼伦贝尔市,CLOUDY,07:35,16:05,0.87,1,0,43,164,0,-20.42,-16,-30,0,0,0,93495.13,93849.61,93301.9,246.05,232.42,271.1,19.62,22.65,12.12,0.93,0.96,0.83,7.82,12.65,0.14,17,20,16,适宜,1,极易发,4,刺骨的冷,11,极冷,8,最弱,1,阴,无雨,无雨,无雨,多云,多云,晴,\N,\N,\N,西西南(WSW),西南(SW),西(W),3级(树叶摇摆),4级(树枝摇动),3级(树叶摇摆),\N,\N,\N,\N,\N,\N,20221202
20221202,150800,107.387657,40.743213,内蒙古自治区,巴彦淖尔市,\N,内蒙古自治区巴彦淖尔市,PARTLY_CLOUDY_DAY,07:55,17:23,0.76,1,0,85.4,291.3,0,-12.71,-8,-17,0,0,0,89986.35,90391.09,89751.09,265.67,273.53,335.12,10.91,18.88,3.13,0.21,0.33,0.11,21.62,36.29,11.58,11,16,10,适宜,1,极易发,4,湿冷,12,极冷,8,弱,2,多云（白天）,无雨,无雨,无雨,多云,多云,晴,\N,\N,\N,西(W),西(W),北西北(NNW),2级(清风),3级(树叶摇摆),1级(微风徐徐),\N,\N,\N,\N,\N,\N,20221202
20221202,150900,113.132585,40.994785,内蒙古自治区,乌兰察布市,\N,内蒙古自治区乌兰察布市,PARTLY_CLOUDY_DAY,07:33,16:59,0.76,1,0,61.9,204.6,0,-11.38,-5,-17.33,0,0,0,85578.2,85946.57,85306.57,254.95,260.49,216.03,19.16,31.19,11.38,0.24,0.28,0.21,35.66,52,23.66,10,20,5,适宜,1,极易发,4,刺骨的冷,11,极冷,8,最弱,1,多云（白天）,无雨,无雨,无雨,多云,多云,晴,\N,\N,\N,西西南(WSW),西(W),西南(SW),3级(树叶摇摆),\N,2级(清风),\N,\N,\N,\N,\N,\N,20221202
20221202,152200,122.067042,46.077561,内蒙古自治区,兴安盟,\N,内蒙古自治区兴安盟,CLOUDY,07:14,16:07,0.81,1,0.01,62.1,222.9,0,-14.23,-10,-19,0,0,0,97645.47,98082.82,97362.82,261.69,296.2,256.32,16.97,23.89,8.87,0.71,0.82,0.55,19.77,25.37,14.94,7,14,3,适宜,1,极易发,4,刺骨的冷,11,极冷,8,最弱,1,阴,无雨,无雨,无雨,多云,多云,晴,\N,\N,\N,西(W),西西北(WNW),西西南(WSW),3级(树叶摇摆),4级(树枝摇动),2级(清风),\N,\N,\N,\N,\N,\N,20221202
20221202,152500,116.048222,43.933454,内蒙古自治区,锡林郭勒盟,\N,内蒙古自治区锡林郭勒盟,PARTLY_CLOUDY_DAY,07:30,16:39,0.54,1,0,54.4,190,0,-20.58,-15,-26,0,0,0,89067.14,89510.3,88710.3,248.37,252.84,302.79,18.5,28.17,10.91,0.68,0.87,0.44,16.75,24.47,10.74,6,20,3,适宜,1,极易发,4,刺骨的冷,11,极冷,8,弱,2,多云（白天）,无雨,无雨,无雨,多云,多云,晴,\N,\N,\N,西西南(WSW),西西南(WSW),西西北(WNW),3级(树叶摇摆),4级(树枝摇动),2级(清风),\N,\N,\N,\N,\N,\N,20221202
20221202,152900,105.728969,38.851892,内蒙古自治区,阿拉善盟,\N,内蒙古自治区阿拉善盟,PARTLY_CLOUDY_DAY,07:57,17:35,0.57,1,0,83.1,299.3,0,-9.49,-2,-15,0,0,0,82995.37,83256.12,82830.43,240.25,176.1,136.48,9.45,16.96,2.28,0.33,0.38,0.29,38.38,42.63,31.52,23,37,14,适宜,1,极易发,4,湿冷,12,极冷,8,强,4,多云（白天）,无雨,无雨,无雨,多云,多云,晴,\N,\N,\N,西西南(WSW),南(S),东南(SE),2级(清风),3级(树叶摇摆),1级(微风徐徐),\N,\N,\N,\N,\N,\N,20221202
20221202,210100,123.431474,41.805698,辽宁省,沈阳市,\N,辽宁省沈阳市,PARTLY_CLOUDY_DAY,06:54,16:16,0.37,1,0,101.4,348.4,0,-4.29,1,-11,0,0,0,101916.11,102502.09,101444.26,201.79,222.81,204.9,16.91,25.06,8.64,0.44,0.9,0.28,25.11,31.68,18.63,27,54,19,适宜,1,极易发,4,刺骨的冷,11,极冷,8,中等,3,多云（白天）,无雨,无雨,无雨,多云,多云,晴,\N,\N,\N,南西南(SSW),西南(SW),南西南(SSW),3级(树叶摇摆),4级(树枝摇动),2级(清风),\N,\N,\N,\N,\N,\N,20221202
20221202,210200,121.614682,38.914003,辽宁省,大连市,\N,辽宁省大连市,PARTLY_CLOUDY_DAY,06:53,16:31,0.68,1,0,91.2,294.1,0,2.19,5,-1,0,0,0,102449.63,102875.07,102075.07,238.16,227.62,284.01,17.83,27.83,9.26,0.47,0.55,0.41,23.55,26.84,18.96,27,32,15,适宜,1,易发,3,湿冷,12,极冷,8,最弱,1,多云（白天）,无雨,无雨,无雨,多云,多云,晴,\N,\N,\N,西西南(WSW),西南(SW),西西北(WNW),3级(树叶摇摆),4级(树枝摇动),2级(清风),\N,\N,\N,\N,\N,\N,20221202
20221202,210300,122.994329,41.108647,辽宁省,鞍山市,\N,辽宁省鞍山市,PARTLY_CLOUDY_DAY,06:54,16:20,0.49,1,0,93.9,342.9,0,-1.46,2,-5.33,0,0,0,101519.43,102077.44,101125.85,193.4,213.23,140.43,17.41,26.62,6.43,0.47,0.93,0.27,24.28,29.45,14.36,31,62,20,适宜,1,极易发,4,湿冷,12,极冷,8,弱,2,多云（白天）,无雨,无雨,无雨,多云,多云,晴,\N,\N,\N,南西南(SSW),南西南(SSW),东南(SE),3级(树叶摇摆),4级(树枝摇动),2级(清风),\N,\N,\N,\N,\N,\N,20221202
20221202,210400,123.957208,41.880872,辽宁省,抚顺市,\N,辽宁省抚顺市,PARTLY_CLOUDY_DAY,06:52,16:14,0.44,1,0,100.4,347,0,-6.29,-1,-14,0,0,0,100172.45,100709.29,99704,200.84,212.3,167.51,17.31,26.19,8.46,0.5,0.94,0.32,21.09,27.08,16.48,27,43,18,适宜,1,极易发,4,刺骨的冷,11,极冷,8,弱,2,多云（白天）,无雨,无雨,无雨,多云,多云,晴,\N,\N,\N,南西南(SSW),南西南(SSW),南东南(SSE),3级(树叶摇摆),4级(树枝摇动),2级(清风),\N,\N,\N,\N,\N,\N,20221202
20221202,210500,123.766485,41.294175,辽宁省,本溪市,\N,辽宁省本溪市,PARTLY_CLOUDY_DAY,06:51,16:16,0.51,1,0,95.5,333.2,0,-6.1,0,-11.17,0,0,0,98922.6,99385.02,98496.16,176.22,195.63,175.47,11.16,18.57,5.08,0.51,0.92,0.36,20.72,24.22,13.21,34,49,25,适宜,1,极易发,4,湿冷,12,极冷,8,弱,2,多云（白天）,无雨,无雨,无雨,多云,多云,晴,\N,\N,\N,南(S),南西南(SSW),南(S),2级(清风),3级(树叶摇摆),1级(微风徐徐),\N,\N,\N,\N,\N,\N,20221202
20221202,520100,106.630153,26.647661,贵州省,贵阳市,\N,贵州省贵阳市,CLOUDY,07:25,18:00,0.96,1,0.3,54.2,253.8,0,2.21,6.29,-0.91,0,0,0,87814.34,88234.64,87474.34,48.69,24.7,116.17,6.03,11.53,1.23,0.77,0.85,0.63,15.93,20.16,11.01,4,6,3,较不适宜,3,极易发,4,湿冷,12,寒冷,7,最弱,1,阴,无雨,无雨,无雨,多云,多云,多云,\N,\N,\N,东北(NE),北东北(NNE),东东南(ESE),2级(清风),2级(清风),1级(微风徐徐),\N,\N,\N,\N,\N,\N,20221202
20221202,210600,124.354706,40.000499,辽宁省,丹东市,\N,辽宁省丹东市,PARTLY_CLOUDY_DAY,06:45,16:17,0.55,1,0,89.9,335.7,0,-3.96,0,-9,0,0,0,102553.01,102937.14,102137.14,101,104.97,49.56,11.2,22.66,2.34,0.57,0.96,0.28,23.96,33.46,17.72,12,16,10,适宜,1,极易发,4,刺骨的冷,11,极冷,8,最弱,1,多云（白天）,无雨,无雨,无雨,多云,多云,晴,\N,\N,\N,东(E),东东南(ESE),东北(NE),2级(清风),4级(树枝摇动),1级(微风徐徐),\N,\N,\N,\N,\N,\N,20221202
20221202,210700,121.127003,41.095119,辽宁省,锦州市,\N,辽宁省锦州市,PARTLY_CLOUDY_DAY,07:01,16:27,0.46,1,0,70.4,234.3,0,-4.02,1,-10,0,0,0,101729.64,102335.18,101335.03,226.07,220.43,199.27,13.89,27.25,3.04,0.29,0.35,0.16,39.14,48.54,33.02,36,78,19,适宜,1,极易发,4,刺骨的冷,11,极冷,8,最弱,1,多云（白天）,无雨,无雨,无雨,多云,多云,晴,\N,\N,\N,西南(SW),西南(SW),南西南(SSW),3级(树叶摇摆),4级(树枝摇动),1级(微风徐徐),\N,\N,\N,\N,\N,\N,20221202
20221202,210800,122.235417,40.667012,辽宁省,营口市,\N,辽宁省营口市,PARTLY_CLOUDY_DAY,06:56,16:24,0.54,1,0,89.2,310.8,0,-0.83,3,-7,0,0.05,0,102588.57,103173.44,102161.55,226.07,222.25,170.58,23.27,36.22,7.46,0.46,0.68,0.33,24.97,34.02,12.24,25,58,13,较不适宜,3,极易发,4,湿冷,12,极冷,8,最弱,1,多云（白天）,无雨,小雨,无雨,多云,多云,晴,\N,\N,\N,西南(SW),西南(SW),南(S),4级(树枝摇动),\N,2级(清风),\N,\N,\N,\N,\N,\N,20221202
20221202,210900,121.670323,42.021619,辽宁省,阜新市,\N,辽宁省阜新市,PARTLY_CLOUDY_DAY,07:02,16:22,0.33,1,0,93.5,330.3,0,-7.17,-1,-15,0,0,0,99587.38,100211.45,99173.66,221.55,225.08,224.31,15.39,25.97,6.76,0.25,0.34,0.15,35.02,43.54,28.08,34,66,20,适宜,1,极易发,4,刺骨的冷,11,极冷,8,弱,2,多云（白天）,无雨,无雨,无雨,多云,多云,晴,\N,\N,\N,西南(SW),西南(SW),西南(SW),3级(树叶摇摆),4级(树枝摇动),2级(清风),\N,\N,\N,\N,\N,\N,20221202
20221202,211000,123.236944,41.267244,辽宁省,辽阳市,\N,辽宁省辽阳市,PARTLY_CLOUDY_DAY,06:53,16:18,0.48,1,0,95.7,345.7,0,-2.77,2,-8.17,0,0,0,101819.78,102390.03,101344.8,192.98,221.18,155.26,15.71,23.96,6.21,0.45,0.93,0.25,23.16,28.19,14.71,28,64,16,适宜,1,极易发,4,刺骨的冷,11,极冷,8,弱,2,多云（白天）,无雨,无雨,无雨,多云,多云,晴,\N,\N,\N,南西南(SSW),西南(SW),南东南(SSE),3级(树叶摇摆),4级(树枝摇动),2级(清风),\N,\N,\N,\N,\N,\N,20221202
20221202,211100,122.070714,41.119997,辽宁省,盘锦市,\N,辽宁省盘锦市,PARTLY_CLOUDY_DAY,06:58,16:23,0.41,1,0,90.7,329.9,0,-1.33,2,-6,0,0.05,0,102524.76,103161.6,102080,229.9,232.24,128.49,17.88,30.56,6.73,0.36,0.5,0.25,31.09,38.69,14.53,31,69,17,较不适宜,3,极易发,4,湿冷,12,极冷,8,最弱,1,多云（白天）,无雨,小雨,无雨,多云,多云,晴,\N,\N,\N,西南(SW),西南(SW),东南(SE),3级(树叶摇摆),\N,2级(清风),\N,\N,\N,\N,\N,\N,20221202
20221202,211200,123.726166,42.223769,辽宁省,铁岭市,\N,辽宁省铁岭市,PARTLY_CLOUDY_DAY,06:54,16:13,0.41,1,0,96,347.7,0,-6.04,-1,-11,0,0,0,101458.17,102018.55,100970.92,205.94,214.33,207.54,18.91,27.94,8.63,0.53,0.9,0.38,22.25,27.9,14.89,28,53,18,适宜,1,极易发,4,刺骨的冷,11,极冷,8,弱,2,多云（白天）,无雨,无雨,无雨,多云,多云,晴,\N,\N,\N,南西南(SSW),西南(SW),南西南(SSW),3级(树叶摇摆),4级(树枝摇动),2级(清风),\N,\N,\N,\N,\N,\N,20221202
20221202,211300,120.450372,41.573734,辽宁省,朝阳市,\N,辽宁省朝阳市,PARTLY_CLOUDY_DAY,07:05,16:28,0.49,1,0,59.7,201.5,0,-5.67,1,-12,0,0,0,98607.46,99217.14,98193.02,227.24,226.17,230.98,13.83,27.15,5.44,0.28,0.39,0.14,40.81,48.7,33.98,34,61,18,适宜,1,极易发,4,刺骨的冷,11,极冷,8,最弱,1,多云（白天）,无雨,无雨,无雨,多云,多云,晴,\N,\N,\N,西南(SW),西南(SW),西南(SW),3级(树叶摇摆),4级(树枝摇动),1级(微风徐徐),\N,\N,\N,\N,\N,\N,20221202
20221202,520200,104.830359,26.592666,贵州省,六盘水市,\N,贵州省六盘水市,PARTLY_CLOUDY_DAY,07:32,18:07,0.67,1,0.04,119.4,583.7,0,4.58,13,0,0.01,0.09,0,80689.86,81037.4,80349.31,133.07,118.64,191.51,6.85,10.91,4.78,0.86,0.95,0.67,5.85,12.12,0.07,10,16,8,较不适宜,3,极易发,4,湿冷,12,寒冷,7,最弱,1,多云（白天）,无雨,小雨,无雨,多云,多云,晴,\N,\N,\N,东南(SE),东东南(ESE),南西南(SSW),2级(清风),2级(清风),1级(微风徐徐),\N,\N,\N,\N,\N,\N,20221202
20221202,211400,120.836932,40.711052,辽宁省,葫芦岛市,\N,辽宁省葫芦岛市,PARTLY_CLOUDY_DAY,07:01,16:29,0.53,1,0,65,225.9,0,-3.69,3,-12,0,0,0,101995.5,102536.27,101576.27,240.96,224.32,292.21,19.63,32.29,6.24,0.33,0.39,0.23,41.09,47.11,35.42,30,68,14,适宜,1,极易发,4,刺骨的冷,11,极冷,8,最弱,1,多云（白天）,无雨,无雨,无雨,多云,多云,晴,\N,\N,\N,西西南(WSW),西南(SW),西西北(WNW),3级(树叶摇摆),\N,2级(清风),\N,\N,\N,\N,\N,\N,20221202
20221202,220100,125.323544,43.817071,吉林省,长春市,\N,吉林省长春市,PARTLY_CLOUDY_DAY,06:53,16:02,0.56,1,0,76.8,288.4,0,-8.17,-5,-12.33,0,0,0,99458.23,99920.1,98886.41,218.02,216.71,214.59,22.31,27.79,18.56,0.54,0.78,0.42,18.77,22.61,12.5,19,30,11,适宜,1,极易发,4,刺骨的冷,11,极冷,8,最弱,1,多云（白天）,无雨,无雨,无雨,多云,多云,晴,\N,\N,\N,西南(SW),西南(SW),西南(SW),4级(树枝摇动),4级(树枝摇动),3级(树叶摇摆),\N,\N,\N,\N,\N,\N,20221202
20221202,220200,126.549576,43.837883,吉林省,吉林市,\N,吉林市,PARTLY_CLOUDY_DAY,06:48,15:57,0.46,1,0,82.9,311.3,0,-8.5,-4,-13.33,0,0,0,98926.88,99290.17,98397.91,208.48,210.19,209.2,19.06,24.35,14.93,0.62,0.77,0.48,17.14,20.13,14.78,18,29,8,适宜,1,极易发,4,刺骨的冷,11,极冷,8,最弱,1,多云（白天）,无雨,无雨,无雨,多云,多云,晴,\N,\N,\N,南西南(SSW),南西南(SSW),南西南(SSW),3级(树叶摇摆),4级(树枝摇动),3级(树叶摇摆),\N,\N,\N,\N,\N,\N,20221202
20221202,220300,124.350398,43.166419,吉林省,四平市,\N,吉林省四平市,PARTLY_CLOUDY_DAY,06:55,16:08,0.39,1,0,82.3,304.9,0,-7.56,-4,-12,0,0,0,99923.46,100478.04,99384.78,212.92,209.97,216.31,22.51,28.42,15.08,0.49,0.81,0.36,18.74,24.36,11.59,20,36,12,适宜,1,极易发,4,刺骨的冷,11,极冷,8,最弱,1,多云（白天）,无雨,无雨,无雨,多云,多云,晴,\N,\N,\N,南西南(SSW),南西南(SSW),西南(SW),4级(树枝摇动),4级(树枝摇动),3级(树叶摇摆),\N,\N,\N,\N,\N,\N,20221202
20221202,220400,125.143532,42.887918,吉林省,辽源市,\N,吉林省辽源市,PARTLY_CLOUDY_DAY,06:51,16:06,0.56,1,0,85.5,325.2,0,-8.94,-4,-15,0,0,0,98263.04,98728.12,97768.12,211.23,223.33,209.14,20.68,29.16,11.4,0.65,0.85,0.46,17.26,20.12,13.91,19,27,13,适宜,1,极易发,4,刺骨的冷,11,极冷,8,最弱,1,多云（白天）,无雨,无雨,无雨,多云,多云,晴,\N,\N,\N,南西南(SSW),西南(SW),南西南(SSW),4级(树枝摇动),\N,2级(清风),\N,\N,\N,\N,\N,\N,20221202
20221202,220500,125.939697,41.728401,吉林省,通化市,\N,吉林省通化市,PARTLY_CLOUDY_DAY,06:44,16:06,0.51,1,0,95.9,369.8,0,-11.73,-5,-15,0,0,0,95714.53,96030.15,95290.85,197.12,209.6,192.73,9.42,18.88,3.73,0.71,0.88,0.5,13.24,15.28,11.23,26,39,18,适宜,1,极易发,4,湿冷,12,极冷,8,弱,2,多云（白天）,无雨,无雨,无雨,多云,多云,晴,\N,\N,\N,南西南(SSW),南西南(SSW),南西南(SSW),2级(清风),3级(树叶摇摆),1级(微风徐徐),\N,\N,\N,\N,\N,\N,20221202
20221202,220600,126.423587,41.939994,吉林省,白山市,\N,吉林省白山市,PARTLY_CLOUDY_DAY,06:43,16:03,0.51,1,0,93.6,368.6,0,-14.61,-6,-20,0,0,0,93730.09,94012.63,93366.76,196.3,213.82,166.15,8.69,17.28,3.66,0.73,0.93,0.47,13.41,17.41,9.9,24,39,15,适宜,1,极易发,4,湿冷,12,极冷,8,弱,2,多云（白天）,无雨,无雨,无雨,多云,多云,晴,\N,\N,\N,南西南(SSW),西南(SW),南东南(SSE),2级(清风),3级(树叶摇摆),1级(微风徐徐),\N,\N,\N,\N,\N,\N,20221202
20221202,220700,124.825117,45.141789,吉林省,松原市,\N,吉林省松原市,PARTLY_CLOUDY_DAY,06:59,16:00,0.46,1,0,78.1,295.2,0,-10.19,-6,-14,0,0,0,100223.78,100696.49,99830.12,222.65,221.04,229.9,18.7,27.08,10.38,0.56,0.65,0.41,19.22,23.76,13.93,17,31,9,适宜,1,极易发,4,刺骨的冷,11,极冷,8,弱,2,多云（白天）,无雨,无雨,无雨,多云,多云,晴,\N,\N,\N,西南(SW),西南(SW),西南(SW),3级(树叶摇摆),4级(树枝摇动),2级(清风),\N,\N,\N,\N,\N,\N,20221202
20221202,220800,122.839024,45.619641,吉林省,白城市,\N,吉林省白城市,PARTLY_CLOUDY_DAY,07:09,16:06,0.47,1,0,74.3,260.7,0,-11.73,-7,-16,0,0,0,99994.26,100489.88,99663.02,246.81,244.01,240.49,18.7,25.09,8.19,0.58,0.71,0.4,21.43,27.1,16.02,14,26,5,适宜,1,极易发,4,刺骨的冷,11,极冷,8,最弱,1,多云（白天）,无雨,无雨,无雨,多云,多云,晴,\N,\N,\N,西西南(WSW),西西南(WSW),西西南(WSW),3级(树叶摇摆),4级(树枝摇动),2级(清风),\N,\N,\N,\N,\N,\N,20221202
20221202,222400,129.508946,42.891253,吉林省,延边朝鲜族自治州,\N,吉林省延边朝鲜族自治州,PARTLY_CLOUDY_DAY,06:33,15:48,0.31,1,0,97.7,365,0,-9.98,-5,-14,0,0,0,97931.47,98175.07,97535.07,252.99,269.79,116.62,10.31,19,2.61,0.61,0.82,0.38,19.73,25.11,14.53,8,17,3,适宜,1,极易发,4,湿冷,12,极冷,8,强,4,多云（白天）,无雨,无雨,无雨,多云,多云,晴,\N,\N,\N,西西南(WSW),西(W),东东南(ESE),2级(清风),3级(树叶摇摆),1级(微风徐徐),\N,\N,\N,\N,\N,\N,20221202
20221202,520300,106.927389,27.725654,贵州省,遵义市,\N,贵州省遵义市,CLOUDY,07:26,17:56,0.92,1,0.49,49.8,170.4,0,3.48,7,2,0,0,0,91063.89,91502.31,90723.28,104.35,125.73,92.77,4.54,5.2,2.23,0.75,0.84,0.64,16.78,19.86,14.41,8,10,7,适宜,1,易发,3,湿冷,12,寒冷,7,最弱,1,阴,无雨,无雨,无雨,多云,多云,多云,\N,\N,\N,东东南(ESE),东南(SE),东(E),1级(微风徐徐),1级(微风徐徐),1级(微风徐徐),\N,\N,\N,\N,\N,\N,20221202
20221202,230100,126.534967,45.803775,黑龙江省,哈尔滨市,\N,黑龙江省哈尔滨市,PARTLY_CLOUDY_DAY,06:55,15:51,0.38,1,0,80.3,300.9,0,-12.83,-8,-16,0,0,0,100413.54,100782.43,99999.64,213.57,209.51,216.78,17.38,23.09,10.22,0.67,0.79,0.52,15.59,22.42,8.87,23,37,10,适宜,1,极易发,4,刺骨的冷,11,极冷,8,中等,3,多云（白天）,无雨,无雨,无雨,多云,多云,晴,\N,\N,\N,南西南(SSW),南西南(SSW),西南(SW),3级(树叶摇摆),4级(树枝摇动),2级(清风),\N,\N,\N,\N,\N,\N,20221202
20221202,230200,123.918186,47.354348,黑龙江省,齐齐哈尔市,\N,黑龙江省齐齐哈尔市,PARTLY_CLOUDY_DAY,07:11,15:55,0.61,1,0,69.4,262.8,0,-17.12,-13,-21,0,0,0,99857.78,100237.96,99646.61,223.9,289.15,231.65,11.84,18.48,6.41,0.81,0.89,0.68,15.24,20.56,10.84,12,19,8,适宜,1,极易发,4,湿冷,12,极冷,8,弱,2,多云（白天）,无雨,无雨,无雨,多云,多云,晴,\N,\N,\N,西南(SW),西西北(WNW),西南(SW),2级(清风),3级(树叶摇摆),2级(清风),\N,\N,\N,\N,\N,\N,20221202
20221202,230300,130.969333,45.295075,黑龙江省,鸡西市,\N,黑龙江省鸡西市,PARTLY_CLOUDY_DAY,06:35,15:35,0.63,1,0,83.6,330.1,0,-15.38,-11,-18,0,0,0,98578.34,98777.46,98239.93,236.85,244.91,191.93,12.95,23.87,2.78,0.74,0.88,0.57,16.22,18.47,13.22,16,27,8,适宜,1,易发,3,刺骨的冷,11,极冷,8,弱,2,多云（白天）,无雨,无雨,无雨,多云,多云,晴,\N,\N,\N,西西南(WSW),西西南(WSW),南西南(SSW),3级(树叶摇摆),4级(树枝摇动),1级(微风徐徐),\N,\N,\N,\N,\N,\N,20221202
20221202,230400,130.297964,47.349916,黑龙江省,鹤岗市,\N,黑龙江省鹤岗市,PARTLY_CLOUDY_DAY,06:45,15:30,0.72,1,0,66,268.4,0,-17.04,-13,-21,0,0,0,99927.64,100099,99586.32,227.77,255.1,216.91,9.8,17.45,3.23,0.76,0.94,0.5,17.14,22.4,14.36,14,22,7,适宜,1,极易发,4,湿冷,12,极冷,8,弱,2,多云（白天）,无雨,无雨,无雨,多云,多云,晴,\N,\N,\N,西南(SW),西西南(WSW),西南(SW),2级(清风),3级(树叶摇摆),1级(微风徐徐),\N,\N,\N,\N,\N,\N,20221202
20221202,230500,131.159133,46.646508,黑龙江省,双鸭山市,\N,黑龙江省双鸭山市,PARTLY_CLOUDY_DAY,06:39,15:29,0.5,1,0,77.7,308.5,0,-14.75,-12,-17,0,0,0,99296.72,99434.66,98954.66,233.78,246.35,174.82,18.12,27.01,9.68,0.74,0.87,0.59,17.41,20.89,14.84,17,28,8,较不适宜,3,易发,3,刺骨的冷,11,极冷,8,中等,3,多云（白天）,无雨,无雨,无雨,多云,多云,晴,\N,\N,\N,西南(SW),西西南(WSW),南(S),3级(树叶摇摆),4级(树枝摇动),2级(清风),\N,\N,\N,\N,\N,\N,20221202
20221202,520400,105.947593,26.253072,贵州省,安顺市,\N,贵州省安顺市,CLOUDY,07:27,18:03,0.94,1,0.3,68.7,269.9,0,3.81,8,-1,0,0.06,0,86676.56,87051.01,86330.24,81.92,29.48,148.88,7.75,12.96,1.54,0.76,0.82,0.68,13.96,19.49,8.75,5,10,3,较不适宜,3,极易发,4,湿冷,12,寒冷,7,最弱,1,阴,无雨,小雨,无雨,多云,多云,多云,\N,\N,\N,东(E),北东北(NNE),南东南(SSE),2级(清风),3级(树叶摇摆),1级(微风徐徐),\N,\N,\N,\N,\N,\N,20221202
20221202,230600,125.103784,46.589309,黑龙江省,大庆市,\N,黑龙江省大庆市,PARTLY_CLOUDY_DAY,07:03,15:53,0.43,1,0,75.7,290.1,0,-15.69,-12,-20,0,0,0,100018.2,100401.5,99731.42,220.56,217.23,254.39,15.67,25.98,8.52,0.77,0.89,0.55,15.56,21.92,11.87,20,26,16,适宜,1,极易发,4,刺骨的冷,11,极冷,8,强,4,多云（白天）,无雨,无雨,无雨,多云,多云,晴,\N,\N,\N,西南(SW),西南(SW),西西南(WSW),3级(树叶摇摆),4级(树枝摇动),2级(清风),\N,\N,\N,\N,\N,\N,20221202
20221202,230700,128.841147,47.727536,黑龙江省,伊春市,\N,黑龙江省伊春市,PARTLY_CLOUDY_DAY,06:53,15:34,0.69,1,0,65,267.7,0,-17.62,-14,-21,0,0,0,97530.34,97727.61,97177.42,224.25,239.31,174.31,8.5,15.45,3.2,0.83,0.95,0.62,13.53,15.78,10.88,20,27,14,较不适宜,3,易发,3,湿冷,12,极冷,8,弱,2,多云（白天）,无雨,无雨,无雨,多云,多云,晴,\N,\N,\N,西南(SW),西西南(WSW),南(S),2级(清风),3级(树叶摇摆),1级(微风徐徐),\N,\N,\N,\N,\N,\N,20221202
20221202,230800,130.318917,46.799922,黑龙江省,佳木斯市,\N,黑龙江省佳木斯市,PARTLY_CLOUDY_DAY,06:43,15:32,0.67,1,0,72.7,294.6,0,-15.15,-12,-17,0,0,0,100503.29,100686.71,100109.06,217.4,236.33,185.17,17.72,23.73,11.44,0.73,0.83,0.55,19.31,24.11,16.29,22,32,14,适宜,1,易发,3,刺骨的冷,11,极冷,8,中等,3,多云（白天）,无雨,无雨,无雨,多云,多云,晴,\N,\N,\N,西南(SW),西西南(WSW),南(S),3级(树叶摇摆),4级(树枝摇动),2级(清风),\N,\N,\N,\N,\N,\N,20221202
20221202,230900,131.003138,45.771726,黑龙江省,七台河市,\N,黑龙江省七台河市,PARTLY_CLOUDY_DAY,06:37,15:33,0.66,1,0,80.9,321,0,-17.48,-12,-25,0,0,0,98800.09,98953.4,98473.4,222.68,259.11,211.01,12.32,20.2,6.19,0.7,0.86,0.51,15.86,18.11,13.7,12,23,4,适宜,1,极易发,4,湿冷,12,极冷,8,最弱,1,多云（白天）,无雨,无雨,无雨,多云,多云,晴,\N,\N,\N,西南(SW),西(W),南西南(SSW),3级(树叶摇摆),4级(树枝摇动),2级(清风),\N,\N,\N,\N,\N,\N,20221202
20221202,231000,129.633168,44.551653,黑龙江省,牡丹江市,\N,黑龙江省牡丹江市,PARTLY_CLOUDY_DAY,06:38,15:42,0.5,1,0,86.4,332.4,0,-11.44,-8,-14,0,0,0,97509.33,97727.92,97087.92,217.45,214.51,218.21,13.08,20.7,6.65,0.77,0.9,0.64,13.86,17.7,10.18,21,25,18,适宜,1,易发,3,刺骨的冷,11,极冷,8,最弱,1,多云（白天）,无雨,无雨,无雨,多云,多云,晴,\N,\N,\N,西南(SW),西南(SW),西南(SW),3级(树叶摇摆),4级(树枝摇动),2级(清风),\N,\N,\N,\N,\N,\N,20221202
20221202,520500,105.283992,27.302589,贵州省,毕节市,\N,贵州省毕节市,PARTLY_CLOUDY_DAY,07:31,18:04,0.71,1,0.17,137.8,556.5,0,5.38,14,0,0,0,0,83609.12,84034.03,83288.61,85.43,66.87,72.03,6.64,13.92,3.31,0.77,0.85,0.61,8.48,16.75,0.2,4,8,3,适宜,1,极易发,4,很冷,8,冷,6,弱,2,多云（白天）,无雨,无雨,无雨,多云,多云,晴,\N,\N,\N,东(E),东东北(ENE),东东北(ENE),2级(清风),3级(树叶摇摆),1级(微风徐徐),\N,\N,\N,\N,\N,\N,20221202
20221202,231100,127.52856,50.245329,黑龙江省,黑河市,\N,黑龙江省黑河市,PARTLY_CLOUDY_DAY,07:08,15:29,0.78,1,0,40.8,173.4,0,-22.1,-17,-27.33,0,0,0,99506.83,99651.16,99410.99,212.59,116.76,167.38,6.29,10.1,1.75,0.92,0.99,0.76,16.11,18.18,14.01,10,13,8,适宜,1,极易发,4,湿冷,12,极冷,8,最弱,1,多云（白天）,无雨,无雨,无雨,多云,多云,晴,\N,\N,\N,南西南(SSW),东东南(ESE),南东南(SSE),2级(清风),2级(清风),1级(微风徐徐),\N,\N,\N,\N,\N,\N,20221202
20221202,231200,126.968887,46.653845,黑龙江省,绥化市,\N,黑龙江省绥化市,PARTLY_CLOUDY_DAY,06:56,15:46,0.35,1,0,76.2,291,0,-13.73,-10,-17,0,0,0,99863.99,100165.36,99451.49,205.79,205.68,214.87,14.42,22.16,5.79,0.82,0.93,0.62,11.55,20.45,0.28,20,29,10,适宜,1,易发,3,刺骨的冷,11,极冷,8,中等,3,多云（白天）,无雨,无雨,无雨,多云,多云,晴,\N,\N,\N,南西南(SSW),南西南(SSW),西南(SW),3级(树叶摇摆),4级(树枝摇动),1级(微风徐徐),\N,\N,\N,\N,\N,\N,20221202
20221202,232700,124.71108,52.335206,黑龙江省,大兴安岭地区,\N,黑龙江省大兴安岭地区,PARTLY_CLOUDY_DAY,07:29,15:31,0.73,1,0,33.5,140.3,0,-23.06,-17,-28.33,0,0,0,95007.22,95146.13,94910.09,271.02,246.67,353.29,3.49,5.64,1.12,0.89,0.98,0.67,16.38,17.9,14.14,3,4,3,适宜,1,极易发,4,湿冷,12,极冷,8,最弱,1,多云（白天）,无雨,无雨,无雨,多云,多云,晴,\N,\N,\N,西(W),西西南(WSW),\N,1级(微风徐徐),1级(微风徐徐),1级(微风徐徐),\N,\N,\N,\N,\N,\N,20221202
20221202,310000,121.473701,31.230416,上海市,上海市,\N,上海市,LIGHT_RAIN,06:35,16:51,0.97,1,0.3,50.4,227.6,0,5.69,10,4,0.3,1.24,0,102806.51,103200.66,102488.42,331.5,327.65,272.77,8.4,15.6,2.11,0.55,0.63,0.49,13.89,18.82,9.63,10,14,9,较不适宜,3,易发,3,湿冷,12,冷,6,最弱,1,小雨,中雨,暴雨,无雨,多云,多云,多云,\N,\N,\N,北西北(NNW),北西北(NNW),西(W),2级(清风),3级(树叶摇摆),1级(微风徐徐),\N,\N,\N,\N,\N,\N,20221202
20221202,320100,118.796877,32.060255,江苏省,南京市,\N,江苏省南京市,LIGHT_RAIN,06:48,17:00,0.28,1,0,151.1,474.6,0,3.1,7,0,0.14,0.95,0,102660.68,103128.56,102317.18,92,132.45,149.55,7.53,10.46,3.55,0.42,0.62,0.25,19.56,36.41,8.94,20,22,19,较不适宜,3,易发,3,湿冷,12,寒冷,7,强,4,小雨,小雨,暴雨,无雨,多云,多云,晴,\N,\N,\N,东(E),东南(SE),南东南(SSE),2级(清风),2级(清风),1级(微风徐徐),\N,\N,\N,\N,\N,\N,20221202
20221202,320200,120.31191,31.491169,江苏省,无锡市,\N,江苏省无锡市,LIGHT_RAIN,06:40,16:55,0.84,1,0.29,147.9,472.7,0,5.26,8,3,0.16,0.81,0,102847.79,103279.3,102482.13,48.67,0.42,58.72,9.43,13.77,5.62,0.48,0.65,0.38,12.99,17.16,8.97,15,19,11,较不适宜,3,易发,3,湿冷,12,冷,6,弱,2,小雨,小雨,暴雨,无雨,多云,多云,多云,\N,\N,\N,东北(NE),\N,东东北(ENE),2级(清风),3级(树叶摇摆),1级(微风徐徐),\N,\N,\N,\N,\N,\N,20221202
20221202,320300,117.284124,34.205768,江苏省,徐州市,\N,江苏省徐州市,PARTLY_CLOUDY_DAY,06:59,17:01,0.44,1,0,138.7,465.5,0,0.71,4,-2,0,0,0,102467.82,103041.93,102081.93,164.9,186.38,129.33,8.79,15.74,1.98,0.3,0.45,0.2,43.77,56.91,28.16,41,45,38,较适宜,2,易发,3,湿冷,12,寒冷,7,强,4,多云（白天）,无雨,无雨,无雨,多云,多云,晴,\N,\N,\N,南东南(SSE),南(S),东南(SE),2级(清风),3级(树叶摇摆),1级(微风徐徐),\N,\N,\N,\N,\N,\N,20221202
20221202,320400,119.973987,31.810689,江苏省,常州市,\N,江苏省常州市,LIGHT_RAIN,06:42,16:55,0.63,1,0.05,148.9,471.9,0,4.73,7,3,0.18,0.9,0,102894.41,103357.98,102557.98,59.12,4.1,164.97,8.33,10.67,5.42,0.48,0.66,0.38,13.73,18.49,9.06,17,21,13,较不适宜,3,易发,3,湿冷,12,寒冷,7,强,4,小雨,小雨,暴雨,无雨,多云,多云,晴,\N,\N,\N,东东北(ENE),\N,南东南(SSE),2级(清风),2级(清风),1级(微风徐徐),\N,\N,\N,\N,\N,\N,20221202
20221202,320500,120.585315,31.298886,江苏省,苏州市,\N,江苏省苏州市,LIGHT_RAIN,06:39,16:54,0.95,1,0.55,91.1,362.2,0,6.79,9,3,0.25,1.31,0,102823.01,103237.61,102507.3,18.54,358.57,165.47,7.23,12.5,3.46,0.52,0.66,0.43,12.12,15.51,9.24,15,18,12,较不适宜,3,易发,3,湿冷,12,冷,6,最弱,1,小雨,小雨,暴雨,无雨,多云,多云,多云,\N,\N,\N,北东北(NNE),\N,南东南(SSE),2级(清风),3级(树叶摇摆),1级(微风徐徐),\N,\N,\N,\N,\N,\N,20221202
20221202,320600,120.894291,31.980171,江苏省,南通市,\N,江苏省南通市,LIGHT_RAIN,06:39,16:51,0.85,1,0.15,130.2,441.7,0,5.02,9,2,0.2,1.35,0,102877.86,103280,102560,339.35,333.42,193.41,10.12,17.45,3.14,0.56,0.64,0.49,12.87,16.77,8.55,8,13,6,较不适宜,3,易发,3,湿冷,12,冷,6,最弱,1,小雨,小雨,暴雨,无雨,多云,多云,晴,\N,\N,\N,北西北(NNW),北西北(NNW),南西南(SSW),2级(清风),3级(树叶摇摆),1级(微风徐徐),\N,\N,\N,\N,\N,\N,20221202
20221202,320700,119.221611,34.596653,江苏省,连云港市,\N,江苏省连云港市,PARTLY_CLOUDY_DAY,06:52,16:52,0.45,1,0,141,453.3,0,0.67,5,-4,0,0,0,102842.29,103310.74,102458.16,228.12,205.28,256.47,8.33,12.85,3.21,0.32,0.41,0.27,32.35,48.17,15.67,28,34,22,适宜,1,极易发,4,湿冷,12,寒冷,7,强,4,多云（白天）,无雨,无雨,无雨,多云,多云,晴,\N,\N,\N,西南(SW),南西南(SSW),西西南(WSW),2级(清风),3级(树叶摇摆),1级(微风徐徐),\N,\N,\N,\N,\N,\N,20221202
20221202,520600,109.189598,27.731514,贵州省,铜仁市,\N,贵州省铜仁市,CLOUDY,07:17,17:47,0.85,1,0.2,92.7,398.2,0,4.23,7,2,0,0,0,96562.37,97137.99,96183.9,87.68,52.33,86.3,3.77,6.44,1.72,0.71,0.82,0.56,17.61,23.48,12.97,4,8,3,较不适宜,3,易发,3,湿冷,12,寒冷,7,中等,3,阴,无雨,无雨,无雨,多云,多云,多云,\N,\N,\N,东(E),东北(NE),东(E),1级(微风徐徐),2级(清风),1级(微风徐徐),\N,\N,\N,\N,\N,\N,20221202
20221202,320800,119.015285,33.610353,江苏省,淮安市,\N,江苏省淮安市,PARTLY_CLOUDY_DAY,06:50,16:55,0.35,1,0,146.8,467.6,0,1.6,6,-2,0.01,0.07,0,102884.38,103362.73,102482.73,157.67,161.71,67.14,6.93,9.29,3.75,0.36,0.52,0.22,29.02,45.1,15.1,13,20,11,较不适宜,3,极易发,4,湿冷,12,寒冷,7,强,4,多云（白天）,无雨,小雨,无雨,多云,多云,晴,\N,\N,\N,南东南(SSE),南东南(SSE),东东北(ENE),2级(清风),2级(清风),1级(微风徐徐),\N,\N,\N,\N,\N,\N,20221202
20221202,320900,120.163561,33.347382,江苏省,盐城市,\N,江苏省盐城市,LIGHT_SNOW,06:45,16:51,0.25,1,0,154.8,489.2,0,2.64,7,0,0.03,0.24,0,102972.42,103387.66,102640,336.17,317.43,74.04,7.48,12.07,2.89,0.5,0.67,0.4,19.97,25.96,11.88,11,15,9,较不适宜,3,易发,3,湿冷,12,寒冷,7,强,4,小雪,小雪,小雪,无雪,多云,多云,晴,\N,\N,\N,北西北(NNW),西北(NW),东东北(ENE),2级(清风),3级(树叶摇摆),1级(微风徐徐),\N,\N,\N,\N,\N,\N,20221202
20221202,321000,119.412966,32.39421,江苏省,扬州市,\N,江苏省扬州市,LIGHT_SNOW,06:46,16:56,0.21,1,0,149.9,475.3,0,2.92,7,0,0.1,0.56,0,102814.54,103266.17,102466.17,75.64,137.28,94.94,7.35,10,2.72,0.48,0.64,0.37,17.78,26.11,10.02,16,20,13,较不适宜,3,易发,3,湿冷,12,寒冷,7,强,4,小雪,小雪,暴雪,无雪,多云,多云,晴,\N,\N,\N,东东北(ENE),东南(SE),东(E),2级(清风),2级(清风),1级(微风徐徐),\N,\N,\N,\N,\N,\N,20221202
20221202,321100,119.425836,32.187849,江苏省,镇江市,\N,江苏省镇江市,LIGHT_RAIN,06:45,16:57,0.25,1,0,149.7,474.4,0,4.25,8,2,0.15,0.88,0,102789.68,103232.67,102418.68,71.03,128.75,218.67,7.08,10.5,2.05,0.5,0.67,0.39,16.52,24.41,9.28,17,20,15,较不适宜,3,易发,3,湿冷,12,寒冷,7,强,4,小雨,小雨,暴雨,无雨,多云,多云,晴,\N,\N,\N,东东北(ENE),东南(SE),西南(SW),2级(清风),2级(清风),1级(微风徐徐),\N,\N,\N,\N,\N,\N,20221202
20221202,321200,119.923116,32.455778,江苏省,泰州市,\N,江苏省泰州市,LIGHT_SNOW,06:44,16:54,0.22,1,0,153.1,484.3,0,2.75,7,0,0.13,0.66,0,102923.82,103360,102560,26.95,341.71,296.65,7.31,9.75,1.46,0.51,0.66,0.4,16.36,23.84,10.75,14,19,12,较不适宜,3,易发,3,湿冷,12,寒冷,7,强,4,小雪,小雪,暴雪,无雪,多云,多云,晴,\N,\N,\N,北东北(NNE),北西北(NNW),西西北(WNW),2级(清风),2级(清风),1级(微风徐徐),\N,\N,\N,\N,\N,\N,20221202
20221202,321300,118.275198,33.963232,江苏省,宿迁市,\N,江苏省宿迁市,PARTLY_CLOUDY_DAY,06:54,16:57,0.46,1,0,140.8,463.4,0,2.33,5,-1,0,0,0,102719.25,103218.64,102338.64,155.36,172.24,352.85,7.79,13.33,3.4,0.32,0.4,0.21,40.59,58.56,21.88,15,24,13,较适宜,2,易发,3,湿冷,12,寒冷,7,强,4,多云（白天）,无雨,无雨,无雨,多云,多云,晴,\N,\N,\N,南东南(SSE),南(S),\N,2级(清风),3级(树叶摇摆),1级(微风徐徐),\N,\N,\N,\N,\N,\N,20221202
20221202,330100,120.15507,30.274084,浙江省,杭州市,\N,浙江省杭州市,LIGHT_RAIN,06:38,16:58,0.94,1,0.3,75.4,302.7,0,2.12,4,1,0.4,1.03,0,102597.62,103002.2,102254.75,287.46,325.42,278.71,4.3,9.69,0.93,0.88,0.98,0.78,10.38,13.55,6.73,16,20,12,较不适宜,3,易发,3,湿冷,12,寒冷,7,最弱,1,小雨,大雨,暴雨,无雨,多云,多云,多云,\N,\N,\N,西西北(WNW),西北(NW),西(W),1级(微风徐徐),2级(清风),0级(无风),\N,\N,\N,\N,\N,\N,20221202
20221202,330112,119.718891,30.237881,浙江省,杭州市,\N,浙江省杭州市临安区,LIGHT_RAIN,06:40,17:00,0.89,1,0.3,84.4,344.6,0,3.04,5,0,0.25,1.5,0,100599.79,100950.09,100310.09,55.48,17.66,342.99,2.98,4.86,0.6,0.93,0.97,0.84,10.06,11.27,9.32,16,20,12,较不适宜,3,易发,3,湿冷,12,寒冷,7,最弱,1,小雨,小雨,暴雨,无雨,多云,多云,多云,\N,\N,\N,东北(NE),北东北(NNE),北西北(NNW),1级(微风徐徐),1级(微风徐徐),0级(无风),\N,\N,\N,\N,\N,\N,20221202
20221202,330200,121.550357,29.874556,浙江省,宁波市,\N,浙江省宁波市,MODERATE_RAIN,06:32,16:53,0.99,1,0.92,34.8,184.4,0,5.04,9,3,0.52,1.99,0,102324.07,102663,101959.12,310.39,311.62,278.42,8.67,15.54,3.55,0.91,0.98,0.81,11.16,14.38,7.92,12,18,9,较不适宜,3,易发,3,湿冷,12,冷,6,最弱,1,中雨,暴雨,暴雨,无雨,多云,多云,多云,\N,\N,\N,西北(NW),西北(NW),西(W),2级(清风),3级(树叶摇摆),1级(微风徐徐),\N,\N,\N,\N,\N,\N,20221202
20221202,330300,120.699366,27.994267,浙江省,温州市,\N,浙江省温州市,LIGHT_RAIN,06:31,17:01,0.97,1,0.3,26.9,121.9,0,8.92,12,5,0.2,1.24,0,101135.61,101390.14,100910.14,318.44,315.88,325.4,8.37,13.39,5.06,0.84,0.9,0.74,10.82,11.8,8.72,16,19,14,较不适宜,3,易发,3,很冷,8,冷,6,最弱,1,小雨,小雨,暴雨,无雨,多云,多云,多云,\N,\N,\N,西北(NW),西北(NW),西北(NW),2级(清风),3级(树叶摇摆),1级(微风徐徐),\N,\N,\N,\N,\N,\N,20221202
20221202,330400,120.755486,30.746129,浙江省,嘉兴市,\N,浙江省嘉兴市,LIGHT_RAIN,06:37,16:55,0.94,1,0.3,70.2,303.1,0,4.46,7,3,0.25,1.03,0,102860.1,103280,102560,292.41,344.48,292.8,5.97,14.33,0.99,0.74,0.97,0.57,10.46,13.91,7.27,14,16,11,较不适宜,3,易发,3,湿冷,12,寒冷,7,最弱,1,小雨,中雨,暴雨,无雨,多云,多云,多云,\N,\N,\N,西西北(WNW),北西北(NNW),西西北(WNW),1级(微风徐徐),3级(树叶摇摆),0级(无风),\N,\N,\N,\N,\N,\N,20221202
20221202,330500,120.086823,30.894348,浙江省,湖州市,\N,浙江省湖州市,LIGHT_RAIN,06:40,16:57,0.94,1,0.36,102.9,405,0,3.88,9,1,0.22,0.72,0,102642.01,103073.31,102301.1,174.1,146.94,192.44,6.13,8.7,1.2,0.67,0.83,0.52,10.66,14.46,8.22,17,22,12,较不适宜,3,极易发,4,湿冷,12,寒冷,7,弱,2,小雨,小雨,暴雨,无雨,多云,多云,多云,\N,\N,\N,南(S),南东南(SSE),南西南(SSW),2级(清风),2级(清风),1级(微风徐徐),\N,\N,\N,\N,\N,\N,20221202
20221202,330600,120.580232,30.029752,浙江省,绍兴市,\N,浙江省绍兴市,LIGHT_RAIN,06:36,16:57,0.97,1,0.3,33.6,109.2,0,3.85,6,1,0.27,0.75,0,102307.89,102684.46,101987.08,321.34,334.41,232.92,3.91,7.8,1.53,0.9,1,0.81,9.91,12.59,8.64,16,18,13,较不适宜,3,易发,3,湿冷,12,寒冷,7,最弱,1,小雨,中雨,暴雨,无雨,多云,多云,多云,\N,\N,\N,西北(NW),北西北(NNW),西南(SW),1级(微风徐徐),2级(清风),1级(微风徐徐),\N,\N,\N,\N,\N,\N,20221202
20221202,330700,119.647444,29.079059,浙江省,金华市,\N,浙江省金华市,MODERATE_RAIN,06:38,17:03,0.94,1,0.3,44,217.1,0,3.25,8,1,0.71,6.77,0,100853.69,101194.25,100596.89,61.98,64.07,334.49,3.97,6.71,2.29,0.92,0.99,0.84,9.29,9.98,7.68,9,12,7,较不适宜,3,易发,3,湿冷,12,寒冷,7,最弱,1,中雨,暴雨,暴雨,无雨,多云,多云,多云,\N,\N,\N,东东北(ENE),东东北(ENE),北西北(NNW),1级(微风徐徐),2级(清风),1级(微风徐徐),\N,\N,\N,\N,\N,\N,20221202
20221202,330800,118.859457,28.970079,浙江省,衢州市,\N,浙江省衢州市,LIGHT_RAIN,06:41,17:06,0.94,1,0.67,58.6,259.7,0,3.56,9,1,0.32,3.89,0,100305.96,100625.45,100035.44,68.07,59.18,67.14,8.87,12.31,6.04,0.93,0.99,0.85,9.6,10.14,9.2,9,14,6,较不适宜,3,极易发,4,湿冷,12,寒冷,7,最弱,1,小雨,中雨,暴雨,无雨,多云,多云,多云,\N,\N,\N,东东北(ENE),东东北(ENE),东东北(ENE),2级(清风),3级(树叶摇摆),2级(清风),\N,\N,\N,\N,\N,\N,20221202
20221202,330900,122.207215,29.985295,浙江省,舟山市,\N,浙江省舟山市,LIGHT_RAIN,06:29,16:51,0.97,1,0.3,25.4,100.6,0,10.9,16,5,0.4,1.81,0,102419.44,102758.28,102118.28,342.59,334.13,354.75,21.02,33.97,9.51,0.82,0.96,0.73,11.74,16.29,5.03,5,8,4,较不适宜,3,极易发,4,寒冷,9,冷,6,最弱,1,小雨,大雨,暴雨,无雨,多云,多云,多云,\N,\N,\N,北西北(NNW),北西北(NNW),\N,4级(树枝摇动),\N,2级(清风),\N,\N,\N,\N,\N,\N,20221202
20221202,331000,121.420757,28.656386,浙江省,台州市,\N,浙江省台州市,LIGHT_RAIN,06:30,16:57,0.97,1,0.3,42.2,193.7,0,8.18,12,4,0.2,0.66,0,101871.88,102130.99,101614.67,341.56,328.7,341.02,12.55,16.4,8.85,0.87,0.93,0.78,9.88,10.99,8.9,8,11,8,较不适宜,3,极易发,4,很冷,8,冷,6,最弱,1,小雨,小雨,暴雨,无雨,多云,多云,多云,\N,\N,\N,北西北(NNW),北西北(NNW),北西北(NNW),3级(树叶摇摆),3级(树叶摇摆),2级(清风),\N,\N,\N,\N,\N,\N,20221202
20221202,331100,119.922796,28.46763,浙江省,丽水市,\N,浙江省丽水市,LIGHT_RAIN,06:35,17:03,0.99,1,0.94,47.5,230.1,0,6.29,9,2,0.2,1.61,0,98062.58,98358.18,97808.54,5.99,6.76,130.8,3.57,6.16,0.6,0.94,0.99,0.85,6.83,8.92,6.11,10,13,7,较不适宜,3,易发,3,湿冷,12,冷,6,最弱,1,小雨,小雨,暴雨,无雨,多云,多云,多云,\N,\N,\N,\N,\N,东南(SE),1级(微风徐徐),2级(清风),0级(无风),\N,\N,\N,\N,\N,\N,20221202
20221202,340100,117.227239,31.820586,安徽省,合肥市,\N,安徽省合肥市,LIGHT_RAIN,06:53,17:06,0.21,1,0,155.8,479.9,0,1.79,7,-1,0.1,0.71,0,102566.83,103086.69,102206.69,98.06,102.82,34.13,9.42,14.25,6.61,0.49,0.61,0.33,15.88,21.2,6.81,26,29,25,较不适宜,3,极易发,4,湿冷,12,寒冷,7,强,4,小雨,小雨,暴雨,无雨,多云,多云,晴,\N,\N,\N,东(E),东东南(ESE),东北(NE),2级(清风),3级(树叶摇摆),2级(清风),\N,\N,\N,\N,\N,\N,20221202
20221202,340200,118.432941,31.352859,安徽省,芜湖市,\N,安徽省芜湖市,LIGHT_RAIN,06:47,17:03,0.6,1,0.05,144.8,466.7,0,2.73,6,0,0.19,0.61,0,102801.66,103280,102434.46,95.12,79.35,103.4,7.42,13.84,2.3,0.56,0.74,0.35,14.11,27.2,8.45,23,25,20,较不适宜,3,易发,3,湿冷,12,寒冷,7,强,4,小雨,小雨,暴雨,无雨,多云,多云,晴,\N,\N,\N,东(E),东(E),东东南(ESE),2级(清风),3级(树叶摇摆),1级(微风徐徐),\N,\N,\N,\N,\N,\N,20221202
20221202,340300,117.389719,32.916287,安徽省,蚌埠市,\N,安徽省蚌埠市,CLEAR_DAY,06:55,17:03,0.1,0.79,0,152.8,474.7,0,1.33,6,-1,0.01,0.21,0,102535.46,103032.96,102152.96,135.75,170.63,70.13,7.83,10.91,4.19,0.44,0.55,0.25,26.19,31.73,18.89,27,34,23,较不适宜,3,易发,3,湿冷,12,寒冷,7,强,4,晴（白天）,无雨,小雨,无雨,晴,多云,晴,\N,\N,\N,东南(SE),南(S),东东北(ENE),2级(清风),2级(清风),1级(微风徐徐),\N,\N,\N,\N,\N,\N,20221202
20221202,340400,116.999932,32.625478,安徽省,淮南市,\N,安徽省淮南市,CLEAR_DAY,06:56,17:06,0.06,0.83,0,155.3,480,0,1.42,5,-2,0.01,0.29,0,102581.91,103080.16,102240.32,132.9,120.13,68.4,8.53,11.74,4.63,0.45,0.56,0.27,24.58,30.6,16.31,26,36,19,较不适宜,3,易发,3,湿冷,12,寒冷,7,强,4,晴（白天）,无雨,\N,无雨,晴,多云,晴,\N,\N,\N,东南(SE),东东南(ESE),东东北(ENE),2级(清风),2级(清风),1级(微风徐徐),\N,\N,\N,\N,\N,\N,20221202
20221202,340500,118.506759,31.670452,安徽省,马鞍山市,\N,安徽省马鞍山市,LIGHT_RAIN,06:48,17:02,0.44,1,0.05,148.3,471.1,0,2.94,7,0,0.16,0.78,0,102735.48,103220.34,102342.51,88.79,82.93,47.96,8.02,12.07,3.48,0.46,0.66,0.28,16.43,32.17,8.33,24,25,22,较不适宜,3,易发,3,湿冷,12,寒冷,7,强,4,小雨,小雨,暴雨,无雨,多云,多云,晴,\N,\N,\N,东(E),东(E),东北(NE),2级(清风),3级(树叶摇摆),1级(微风徐徐),\N,\N,\N,\N,\N,\N,20221202
20221202,522300,104.906396,25.087825,贵州省,黔西南布依族苗族自治州,\N,贵州省黔西南布依族苗族自治州,PARTLY_CLOUDY_DAY,07:29,18:10,0.78,1,0.24,96.8,424.6,0,6.65,12,3,0,0,0,86658.62,86983.86,86283.29,120.45,147.38,115.26,5.86,10.75,2.12,0.82,0.9,0.71,14.11,18.3,11.07,12,20,8,适宜,1,极易发,4,湿冷,12,冷,6,最弱,1,多云（白天）,无雨,无雨,无雨,多云,多云,多云,\N,\N,\N,东东南(ESE),南东南(SSE),东东南(ESE),1级(微风徐徐),2级(清风),1级(微风徐徐),\N,\N,\N,\N,\N,\N,20221202
20221202,340600,116.798265,33.955844,安徽省,淮北市,\N,安徽省淮北市,PARTLY_CLOUDY_DAY,07:00,17:03,0.41,1,0,140,458.9,0,0.12,4,-3,0,0,0,102413.73,102935.98,102040.53,166.69,185.73,133.94,9.38,17.21,3.46,0.38,0.52,0.25,44.32,56.23,29.52,28,37,22,较适宜,2,易发,3,湿冷,12,寒冷,7,强,4,多云（白天）,无雨,无雨,无雨,多云,多云,晴,\N,\N,\N,南东南(SSE),南(S),东南(SE),2级(清风),3级(树叶摇摆),1级(微风徐徐),\N,\N,\N,\N,\N,\N,20221202
20221202,340700,117.812079,30.945429,安徽省,铜陵市,\N,安徽省铜陵市,LIGHT_RAIN,06:49,17:06,0.67,1,0.06,144.6,463.7,0,4,6,1,0.2,0.66,0,102378.55,102878.84,101998.84,93.21,79.64,181.44,6.18,12.61,2.14,0.68,0.88,0.5,11.24,16.19,7.36,22,23,20,较不适宜,3,易发,3,湿冷,12,寒冷,7,中等,3,小雨,小雨,暴雨,无雨,多云,多云,晴,\N,\N,\N,东(E),东(E),南(S),2级(清风),3级(树叶摇摆),1级(微风徐徐),\N,\N,\N,\N,\N,\N,20221202
20221202,340800,117.063754,30.543494,安徽省,安庆市,\N,安徽省安庆市,LIGHT_RAIN,06:51,17:10,0.63,1,0.06,150.2,475.1,0,3.14,5,1,0.15,0.55,0,102433.22,102932.78,102083.55,51.74,44.33,100.03,6.52,11.29,1.29,0.67,0.76,0.55,10.31,13.87,7.35,20,23,16,较不适宜,3,易发,3,湿冷,12,寒冷,7,中等,3,小雨,小雨,暴雨,无雨,多云,多云,晴,\N,\N,\N,东北(NE),东北(NE),东(E),2级(清风),2级(清风),1级(微风徐徐),\N,\N,\N,\N,\N,\N,20221202
20221202,341000,118.337481,29.714655,安徽省,黄山市,\N,安徽省黄山市,LIGHT_RAIN,06:44,17:07,0.91,1,0.3,75.4,297.8,0,3.62,7,0,0.17,1.11,0,99170.67,99580.5,98920.42,58.61,40.51,67.99,2.76,4.84,0.41,0.96,0.99,0.9,8.69,9.36,5,15,18,15,较不适宜,3,易发,3,湿冷,12,寒冷,7,最弱,1,小雨,小雨,暴雨,无雨,多云,多云,多云,\N,\N,\N,东东北(ENE),东北(NE),东东北(ENE),1级(微风徐徐),1级(微风徐徐),0级(无风),\N,\N,\N,\N,\N,\N,20221202
20221202,341100,118.317106,32.301556,安徽省,滁州市,\N,安徽省滁州市,LIGHT_RAIN,06:50,17:01,0.18,1,0,151.9,476.5,0,1.48,6,-2,0.08,0.65,0,102364.33,102822.27,102010.2,96.76,89.77,138.26,7.16,10.63,3.61,0.44,0.59,0.24,20.55,37.65,8.74,20,24,17,较不适宜,3,极易发,4,湿冷,12,寒冷,7,强,4,小雨,小雨,暴雨,无雨,晴,多云,晴,\N,\N,\N,东(E),东(E),东南(SE),2级(清风),2级(清风),1级(微风徐徐),\N,\N,\N,\N,\N,\N,20221202
20221202,341200,115.814204,32.890124,安徽省,阜阳市,\N,安徽省阜阳市,CLEAR_DAY,07:01,17:10,0.07,0.78,0,154.3,472.6,0,1.98,6,-2,0,0,0,102540.46,103040,102169.03,151.18,170.96,135.4,9.41,13.53,5.01,0.49,0.61,0.33,31.75,37.34,25.47,33,45,27,较适宜,2,极易发,4,湿冷,12,寒冷,7,强,4,晴（白天）,无雨,无雨,无雨,晴,多云,晴,\N,\N,\N,南东南(SSE),南(S),东南(SE),2级(清风),3级(树叶摇摆),1级(微风徐徐),\N,\N,\N,\N,\N,\N,20221202
20221202,341300,116.964356,33.646373,安徽省,宿州市,\N,安徽省宿州市,PARTLY_CLOUDY_DAY,06:59,17:03,0.29,1,0,141.2,471.1,0,-0.04,5,-4,0.01,0.14,0,102563.33,103101.59,102153,157.67,181.27,89.25,8.9,15.22,3.59,0.42,0.53,0.29,36.67,43.43,26.5,27,36,22,较不适宜,3,极易发,4,湿冷,12,极冷,8,强,4,多云（白天）,无雨,小雨,无雨,多云,多云,晴,\N,\N,\N,南东南(SSE),南(S),东(E),2级(清风),3级(树叶摇摆),1级(微风徐徐),\N,\N,\N,\N,\N,\N,20221202
20221202,341500,116.521854,31.733699,安徽省,六安市,\N,安徽省六安市,LIGHT_RAIN,06:56,17:09,0.18,1,0,156.3,478.1,0,3.11,7,0,0.09,0.7,0,102211.58,102746.32,101866.32,121.38,122.54,83.25,8.57,13.1,3.24,0.53,0.65,0.34,9.11,15.32,0.25,26,31,22,较不适宜,3,易发,3,湿冷,12,寒冷,7,强,4,小雨,小雨,暴雨,无雨,晴,多云,晴,\N,\N,\N,东东南(ESE),东东南(ESE),东(E),2级(清风),3级(树叶摇摆),1级(微风徐徐),\N,\N,\N,\N,\N,\N,20221202
20221202,341600,115.778676,33.844582,安徽省,亳州市,\N,安徽省亳州市,PARTLY_CLOUDY_DAY,07:04,17:08,0.35,1,0,138.9,441.2,0,1.96,5,-1,0,0,0,102423.09,102933.21,102049.73,177.33,184.95,176.84,11.66,18.92,5.95,0.43,0.59,0.24,51.03,59.57,38.76,37,41,25,适宜,1,易发,3,湿冷,12,寒冷,7,中等,3,多云（白天）,无雨,无雨,无雨,多云,多云,晴,\N,\N,\N,南(S),南(S),南(S),2级(清风),3级(树叶摇摆),1级(微风徐徐),\N,\N,\N,\N,\N,\N,20221202
20221202,341700,117.491568,30.6648,安徽省,池州市,\N,安徽省池州市,LIGHT_RAIN,06:50,17:08,0.7,1,0.05,143.5,460.3,0,3.42,6,1,0.19,0.65,0,102109.36,102586.8,101786.8,80.37,91.58,109.62,5.64,9.25,0.8,0.75,0.9,0.57,9.62,13.21,3.29,22,24,21,较不适宜,3,易发,3,湿冷,12,寒冷,7,中等,3,小雨,小雨,暴雨,无雨,多云,多云,晴,\N,\N,\N,东(E),东(E),东东南(ESE),1级(微风徐徐),2级(清风),0级(无风),\N,\N,\N,\N,\N,\N,20221202
20221202,341800,118.758816,30.940718,安徽省,宣城市,\N,安徽省宣城市,LIGHT_RAIN,06:45,17:02,0.72,1,0.06,141,457.8,0,3.44,7,1,0.27,0.85,0,102133.48,102623.7,101743.7,110.22,81.96,157.38,7.68,12.38,4.46,0.7,0.86,0.51,10.75,15.29,8.18,21,23,18,较不适宜,3,易发,3,湿冷,12,寒冷,7,中等,3,小雨,中雨,暴雨,无雨,多云,多云,晴,\N,\N,\N,东东南(ESE),东(E),南东南(SSE),2级(清风),3级(树叶摇摆),1级(微风徐徐),\N,\N,\N,\N,\N,\N,20221202
20221202,350100,119.296494,26.074507,福建省,福州市,\N,福建省福州市,LIGHT_RAIN,06:33,17:10,0.97,1,0.3,12.4,39.5,0,13.44,16,11,0.05,0.37,0,99535.06,99755.29,99299.14,357.87,26.76,8.96,4.12,5.62,2.92,0.93,0.96,0.91,11.3,13.01,10.37,7,10,6,较不适宜,3,易发,3,很冷,8,凉爽,5,最弱,1,小雨,小雨,大雨,无雨,多云,多云,多云,\N,\N,\N,\N,北东北(NNE),\N,1级(微风徐徐),1级(微风徐徐),1级(微风徐徐),\N,\N,\N,\N,\N,\N,20221202
20221202,350200,118.089425,24.479833,福建省,厦门市,\N,福建省厦门市,CLOUDY,06:35,17:18,0.86,1,0.3,94.5,350.6,0,14.5,17,14,0,0,0,101724.26,101925.71,101445.71,45.89,54.52,11.93,16.79,21.96,9.02,0.7,0.73,0.65,16,20.31,12.09,9,12,7,适宜,1,易发,3,冷,7,冷,6,最弱,1,阴,无雨,无雨,无雨,多云,多云,多云,\N,\N,\N,东北(NE),东北(NE),北东北(NNE),3级(树叶摇摆),4级(树枝摇动),2级(清风),\N,\N,\N,\N,\N,\N,20221202
20221202,350300,119.007777,25.454084,福建省,莆田市,\N,福建省莆田市,CLOUDY,06:33,17:13,0.96,1,0.3,18.4,63.3,0,12.75,17,11,0,0,0,100048.01,100283.24,99803.24,359.33,11.91,353.84,9.39,11.35,8.3,0.84,0.88,0.76,12.66,14.11,11.37,5,7,5,适宜,1,易发,3,很冷,8,凉爽,5,最弱,1,阴,无雨,无雨,无雨,多云,多云,多云,\N,\N,\N,\N,北东北(NNE),\N,2级(清风),2级(清风),2级(清风),\N,\N,\N,\N,\N,\N,20221202
20221202,522600,107.982859,26.583442,贵州省,黔东南苗族侗族自治州,\N,贵州省黔东南苗族侗族自治州,CLOUDY,07:19,17:55,0.91,1,0.3,92.1,479.3,0,3.98,7,0,0,0,0,91866.64,92351.64,91521.29,34.63,33,31.01,6.14,9.71,3.8,0.78,0.87,0.61,16.07,22.07,12.55,3,7,3,适宜,1,易发,3,湿冷,12,寒冷,7,最弱,1,阴,无雨,无雨,无雨,多云,多云,多云,\N,\N,\N,东北(NE),北东北(NNE),北东北(NNE),2级(清风),2级(清风),1级(微风徐徐),\N,\N,\N,\N,\N,\N,20221202
20221202,350400,117.638678,26.263406,福建省,三明市,\N,福建省三明市,LIGHT_RAIN,06:40,17:17,0.96,1,0.3,12.6,49.3,0,9.52,13,7,0.18,1.66,0,96299.82,96498.92,96017.01,13.68,326.62,354.1,3.71,5.94,1.69,0.97,0.98,0.94,2.64,3.71,0.12,10,12,7,较不适宜,3,易发,3,很冷,8,冷,6,最弱,1,小雨,小雨,暴雨,无雨,多云,多云,多云,\N,\N,\N,北东北(NNE),北西北(NNW),\N,1级(微风徐徐),1级(微风徐徐),1级(微风徐徐),\N,\N,\N,\N,\N,\N,20221202
20221202,350500,118.675675,24.874132,福建省,泉州市,\N,福建省泉州市,CLOUDY,06:33,17:15,0.94,1,0.3,51.6,167.6,0,13.29,17,12,0,0,0,101627.5,101862.9,101382.9,30.94,35.28,14.8,21.35,27.11,13.95,0.72,0.76,0.69,13.95,15.98,11.44,8,13,7,适宜,1,易发,3,寒冷,9,冷,6,最弱,1,阴,无雨,无雨,无雨,多云,多云,多云,\N,\N,\N,北东北(NNE),东北(NE),北东北(NNE),4级(树枝摇动),4级(树枝摇动),3级(树叶摇摆),\N,\N,\N,\N,\N,\N,20221202
20221202,522700,107.522097,26.254092,贵州省,黔南布依族苗族自治州,\N,贵州省黔南布依族苗族自治州,CLOUDY,07:20,17:57,0.92,1,0.22,97.4,524.6,0,4,8,-1,0,0,0,90544.49,90981.69,90174.62,38.89,17.72,46.56,5.87,9.45,3.47,0.78,0.87,0.62,16.91,22.58,13.6,4,9,3,适宜,1,极易发,4,湿冷,12,寒冷,7,弱,2,阴,无雨,无雨,无雨,多云,多云,多云,\N,\N,\N,东北(NE),北东北(NNE),东北(NE),1级(微风徐徐),2级(清风),1级(微风徐徐),\N,\N,\N,\N,\N,\N,20221202
20221202,350600,117.647481,24.512948,福建省,漳州市,\N,福建省漳州市,PARTLY_CLOUDY_DAY,06:36,17:20,0.75,1,0.3,109.4,413.1,0,16.27,18.83,14,0,0,0,100808.56,101039.3,100510.4,335.07,320.03,86.61,4.37,6.7,1.1,0.74,0.82,0.63,15.46,19.72,12.64,9,12,7,适宜,1,易发,3,凉爽,6,温暖,4,最弱,1,多云（白天）,无雨,无雨,无雨,多云,多云,多云,\N,\N,\N,北西北(NNW),西北(NW),东(E),1级(微风徐徐),2级(清风),1级(微风徐徐),\N,\N,\N,\N,\N,\N,20221202
20221202,350700,118.177708,26.641768,福建省,南平市,\N,福建省南平市,LIGHT_RAIN,06:38,17:14,0.97,1,0.3,13.9,74.3,0,8.83,13,7,0.12,0.71,0,97971.9,98200.2,97707.08,349.15,321.36,329.5,3.5,7.18,1.62,0.96,0.98,0.92,5.45,7.7,1.96,6,7,5,较不适宜,3,易发,3,很冷,8,冷,6,最弱,1,小雨,小雨,暴雨,无雨,多云,多云,多云,\N,\N,\N,\N,西北(NW),北西北(NNW),1级(微风徐徐),2级(清风),1级(微风徐徐),\N,\N,\N,\N,\N,\N,20221202
20221202,350800,117.017536,25.075123,福建省,龙岩市,\N,福建省龙岩市,CLOUDY,06:40,17:21,0.9,1,0.3,39.5,174.5,0,12,15,9,0.01,0.14,0,93981.65,94165.51,93713.48,16.95,352.42,13.3,6.17,7.67,3.65,0.94,0.97,0.91,8.71,11.23,4.5,5,7,3,较不适宜,3,易发,3,很冷,8,凉爽,5,最弱,1,阴,无雨,小雨,无雨,多云,多云,多云,\N,\N,\N,北东北(NNE),\N,北东北(NNE),2级(清风),2级(清风),1级(微风徐徐),\N,\N,\N,\N,\N,\N,20221202
20221202,350900,119.547932,26.665617,福建省,宁德市,\N,福建省宁德市,MODERATE_RAIN,06:33,17:08,1,1,1,10.2,36.2,0,10.62,15,9,0.46,2.96,0,98950.76,99206.49,98726.49,347.96,349.56,46.7,4.7,6.83,2.17,0.94,0.96,0.9,9.18,10.44,6.1,6,7,5,较不适宜,3,易发,3,很冷,8,凉爽,5,最弱,1,中雨,大雨,暴雨,无雨,多云,多云,多云,\N,\N,\N,北西北(NNW),\N,东北(NE),1级(微风徐徐),2级(清风),1级(微风徐徐),\N,\N,\N,\N,\N,\N,20221202
20221202,360100,115.858197,28.682892,江西省,南昌市,\N,江西省南昌市,CLOUDY,06:52,17:19,0.93,1,0.3,46.2,145.6,0,4.19,6,2,0.01,0.21,0,102044.86,102459.17,101750.89,349.84,346.85,341.76,8.1,13.16,1.96,0.82,0.92,0.73,10.03,11.03,9.36,12,16,10,较不适宜,3,易发,3,湿冷,12,寒冷,7,最弱,1,阴,无雨,小雨,无雨,多云,多云,多云,\N,\N,\N,\N,北西北(NNW),北西北(NNW),2级(清风),3级(树叶摇摆),1级(微风徐徐),\N,\N,\N,\N,\N,\N,20221202
20221202,360200,117.178419,29.268835,江西省,景德镇市,\N,江西省景德镇市,LIGHT_RAIN,06:48,17:12,0.91,1,0.3,79.2,337,0,3.33,6,2,0.05,0.2,0,101447.48,101817.58,101152.1,20.03,14.24,334.77,3.6,7.37,1.54,0.92,0.95,0.83,9.18,9.43,8.71,11,15,10,较不适宜,3,易发,3,湿冷,12,寒冷,7,最弱,1,小雨,小雨,小雨,无雨,多云,多云,多云,\N,\N,\N,北东北(NNE),北东北(NNE),北西北(NNW),1级(微风徐徐),2级(清风),1级(微风徐徐),\N,\N,\N,\N,\N,\N,20221202
20221202,360300,113.854556,27.622768,江西省,萍乡市,\N,江西省萍乡市,CLOUDY,06:58,17:29,0.96,1,0.3,40.5,132.6,0,2.62,5,1,0,0,0,99412.24,99833.19,99113.19,291.33,243.64,275.11,2.78,4.05,1.45,0.9,0.96,0.84,7.99,9.49,5.65,16,18,14,适宜,1,易发,3,湿冷,12,寒冷,7,最弱,1,阴,无雨,无雨,无雨,多云,多云,多云,\N,\N,\N,西西北(WNW),西西南(WSW),西(W),1级(微风徐徐),1级(微风徐徐),1级(微风徐徐),\N,\N,\N,\N,\N,\N,20221202
20221202,360400,116.00193,29.705077,江西省,九江市,\N,江西省九江市,LIGHT_RAIN,06:54,17:16,0.86,1,0.3,94.5,252.5,0,3.02,6,0,0.11,0.42,0,101800.13,102300.41,101514.67,11.48,19.61,276.55,8.48,16.69,1.96,0.79,0.9,0.72,7.85,10.94,3.04,18,20,18,较不适宜,3,易发,3,湿冷,12,寒冷,7,最弱,1,小雨,小雨,大雨,无雨,多云,多云,多云,\N,\N,\N,北东北(NNE),北东北(NNE),西(W),2级(清风),3级(树叶摇摆),1级(微风徐徐),\N,\N,\N,\N,\N,\N,20221202
20221202,360500,114.917346,27.817808,江西省,新余市,\N,江西省新余市,CLOUDY,06:54,17:24,0.93,1,0.3,67.9,193,0,2.38,5,0,0,0,0,101487.32,101917.11,101158.08,50.21,54.16,34.01,5.48,8.41,1.62,0.84,0.94,0.77,10.67,11.91,9.59,10,12,7,较不适宜,3,易发,3,湿冷,12,寒冷,7,最弱,1,阴,无雨,无雨,无雨,多云,多云,多云,\N,\N,\N,东北(NE),东北(NE),东北(NE),1级(微风徐徐),2级(清风),1级(微风徐徐),\N,\N,\N,\N,\N,\N,20221202
20221202,530100,102.832891,24.880095,云南省,昆明市,\N,云南省昆明市,PARTLY_CLOUDY_DAY,07:36,18:18,0.39,0.99,0,159.2,643.1,0,13.79,20,8,0,0,0,80063.27,80276.1,79835.01,205.86,236.44,160.64,13.08,23.6,8.29,0.73,0.93,0.39,8.85,13.24,0.6,11,22,6,适宜,1,极易发,4,凉爽,6,凉爽,5,中等,3,多云（白天）,无雨,无雨,无雨,多云,多云,晴,\N,\N,\N,南西南(SSW),西西南(WSW),南东南(SSE),3级(树叶摇摆),4级(树枝摇动),2级(清风),\N,\N,\N,\N,\N,\N,20221202
20221202,360600,117.069202,28.260189,江西省,鹰潭市,\N,江西省鹰潭市,LIGHT_RAIN,06:46,17:15,0.98,1,0.87,52.5,211.9,0,5.21,7,3,0.05,0.4,0,102040.96,102410.83,101770.83,18.48,76.21,9.65,5.18,8.79,1.23,0.9,1,0.81,9.09,10.09,8.12,10,13,8,较不适宜,3,易发,3,湿冷,12,冷,6,最弱,1,小雨,小雨,大雨,无雨,多云,多云,多云,\N,\N,\N,北东北(NNE),东东北(ENE),\N,1级(微风徐徐),2级(清风),1级(微风徐徐),\N,\N,\N,\N,\N,\N,20221202
20221202,360700,114.935029,25.831829,江西省,赣州市,\N,江西省赣州市,CLOUDY,06:50,17:28,0.95,1,0.3,21.2,62.3,0,3.83,6,2,0,0,0,99801.08,100131.6,99411.6,359.35,345.61,359.82,7.34,10.77,5.23,0.93,0.98,0.9,9.98,10.74,9.32,4,8,3,适宜,1,易发,3,湿冷,12,寒冷,7,最弱,1,阴,无雨,无雨,无雨,多云,多云,多云,\N,\N,\N,\N,北西北(NNW),\N,2级(清风),2级(清风),1级(微风徐徐),\N,\N,\N,\N,\N,\N,20221202
20221202,360800,114.992509,27.113443,江西省,吉安市,\N,江西省吉安市,CLOUDY,06:52,17:25,0.95,1,0.7,55.1,147.2,0,2.79,5,2,0,0.11,0,101702.78,102118.68,101353.9,17.68,5.33,26.37,8.57,15.86,3.28,0.83,0.89,0.77,10.29,11.25,9.7,8,10,6,较不适宜,3,易发,3,湿冷,12,寒冷,7,最弱,1,阴,无雨,小雨,无雨,多云,多云,多云,\N,\N,\N,北东北(NNE),\N,北东北(NNE),2级(清风),3级(树叶摇摆),1级(微风徐徐),\N,\N,\N,\N,\N,\N,20221202
20221202,360900,114.416778,27.815619,江西省,宜春市,\N,江西省宜春市,CLOUDY,06:56,17:26,0.92,1,0.3,71.2,224.6,0,3.29,5,2,0,0,0,100154.25,100601.95,99842.59,74.23,107.06,282.61,3.47,5.58,0.64,0.85,0.94,0.76,9.73,11.2,7.13,16,21,11,适宜,1,易发,3,湿冷,12,寒冷,7,最弱,1,阴,无雨,无雨,无雨,多云,多云,多云,\N,\N,\N,东东北(ENE),东东南(ESE),西西北(WNW),1级(微风徐徐),1级(微风徐徐),0级(无风),\N,\N,\N,\N,\N,\N,20221202
20221202,361000,116.358181,27.949217,江西省,抚州市,\N,江西省抚州市,CLOUDY,06:48,17:18,1,1,0.97,45.1,161.8,0,2.35,4,1,0.01,0.19,0,102024.89,102464.14,101725.77,348.21,321.33,125.68,4.78,7.81,0.3,0.9,0.99,0.82,9.1,9.91,8.31,9,11,7,较不适宜,3,易发,3,湿冷,12,寒冷,7,最弱,1,阴,无雨,小雨,无雨,多云,多云,多云,\N,\N,\N,北西北(NNW),西北(NW),东南(SE),1级(微风徐徐),2级(清风),0级(无风),\N,\N,\N,\N,\N,\N,20221202
20221202,361100,117.943433,28.454863,江西省,上饶市,\N,江西省上饶市,LIGHT_RAIN,06:43,17:11,0.96,1,0.71,57.4,262.2,0,3.71,6,2,0.08,0.7,0,100580.06,100880.85,100317.58,67.36,65.35,66.06,5.4,9.95,3.13,0.91,1,0.82,9.63,10.72,8.53,11,14,8,较不适宜,3,易发,3,湿冷,12,寒冷,7,最弱,1,小雨,小雨,暴雨,无雨,多云,多云,多云,\N,\N,\N,东东北(ENE),东东北(ENE),东东北(ENE),1级(微风徐徐),2级(清风),1级(微风徐徐),\N,\N,\N,\N,\N,\N,20221202
20221202,530300,103.796167,25.489999,云南省,曲靖市,\N,云南省曲靖市,PARTLY_CLOUDY_DAY,07:34,18:13,0.52,1,0,157.6,628.7,0,10.19,21,3,0.01,0.11,0,79663.56,79881.08,79363.99,199.79,226.96,99.71,14.62,31.42,6.1,0.78,0.98,0.42,10.97,17.02,7.36,10,18,6,较不适宜,3,极易发,4,寒冷,9,凉爽,5,中等,3,多云（白天）,无雨,小雨,无雨,多云,多云,晴,\N,\N,\N,南西南(SSW),西南(SW),东(E),3级(树叶摇摆),\N,2级(清风),\N,\N,\N,\N,\N,\N,20221202
20221202,370100,117.119999,36.651216,山东省,济南市,\N,山东省济南市,PARTLY_CLOUDY_DAY,07:05,16:55,0.3,1,0,130.2,423.1,0,0.31,5,-2.17,0,0,0,100610.04,101183.58,100151.96,192.07,199.25,193.35,11.71,22.94,3.91,0.21,0.34,0.12,48.31,52.78,44.27,53,65,36,较适宜,2,极易发,4,湿冷,12,寒冷,7,中等,3,多云（白天）,无雨,无雨,无雨,多云,多云,晴,\N,\N,\N,南西南(SSW),南西南(SSW),南西南(SSW),2级(清风),4级(树枝摇动),1级(微风徐徐),\N,\N,\N,\N,\N,\N,20221202
20221202,370200,120.382639,36.067082,山东省,青岛市,\N,山东省青岛市,PARTLY_CLOUDY_DAY,06:51,16:44,0.57,1,0,125.2,414.8,0,1.67,6,-1,0,0,0,102650.41,103120.83,102213.35,238.45,212.44,135,13.82,23.2,1.92,0.38,0.54,0.26,29.08,41.5,16.24,20,27,7,适宜,1,易发,3,湿冷,12,寒冷,7,弱,2,多云（白天）,无雨,无雨,无雨,多云,多云,晴,\N,\N,\N,西西南(WSW),南西南(SSW),东南(SE),3级(树叶摇摆),4级(树枝摇动),1级(微风徐徐),\N,\N,\N,\N,\N,\N,20221202
20221202,370300,118.054927,36.813487,山东省,淄博市,\N,山东省淄博市,PARTLY_CLOUDY_DAY,07:02,16:51,0.23,1,0,123.4,408.1,0,-0.28,4,-4,0,0,0,101755.3,102342.29,101286.43,202.14,212.67,194.74,10.08,21.23,2.49,0.19,0.29,0.11,43.01,52.3,30.73,52,70,33,较适宜,2,极易发,4,湿冷,12,极冷,8,强,4,多云（白天）,无雨,无雨,无雨,多云,多云,晴,\N,\N,\N,南西南(SSW),南西南(SSW),南西南(SSW),2级(清风),4级(树枝摇动),1级(微风徐徐),\N,\N,\N,\N,\N,\N,20221202
20221202,370400,117.323725,34.810487,山东省,枣庄市,\N,山东省枣庄市,PARTLY_CLOUDY_DAY,07:00,16:59,0.4,1,0,143.2,457.8,0,2.1,4,-2,0,0,0,102072.33,102591.06,101654.65,173.53,190.38,46.29,9.9,16.42,1.87,0.27,0.47,0.18,46.26,56.4,32.74,42,49,31,较适宜,2,易发,3,湿冷,12,寒冷,7,强,4,多云（白天）,无雨,无雨,无雨,多云,多云,晴,\N,\N,\N,南(S),南(S),东北(NE),2级(清风),3级(树叶摇摆),1级(微风徐徐),\N,\N,\N,\N,\N,\N,20221202
20221202,370500,118.674767,37.434751,山东省,东营市,\N,山东省东营市,PARTLY_CLOUDY_DAY,07:01,16:47,0.32,1,0,107.6,379.5,0,-0.15,5,-3,0,0,0,102812.63,103374.6,102320,198.57,201.81,222.26,12.2,19.46,6.92,0.21,0.3,0.13,43.49,53.42,25.31,41,62,12,适宜,1,极易发,4,湿冷,12,极冷,8,中等,3,多云（白天）,无雨,无雨,无雨,多云,多云,晴,\N,\N,\N,南西南(SSW),南西南(SSW),西南(SW),3级(树叶摇摆),3级(树叶摇摆),2级(清风),\N,\N,\N,\N,\N,\N,20221202
20221202,370600,121.447935,37.463822,山东省,烟台市,\N,山东省烟台市,PARTLY_CLOUDY_DAY,06:50,16:36,0.43,1,0,115.3,367.2,0,1.1,4,-2.17,0,0,0,102404.72,102762.3,102028.05,224.6,192.03,224.01,13.07,18.48,7.93,0.55,0.66,0.39,19.41,29.34,9.63,22,34,12,适宜,1,易发,3,湿冷,12,寒冷,7,最弱,1,多云（白天）,无雨,无雨,无雨,多云,多云,晴,\N,\N,\N,西南(SW),南西南(SSW),西南(SW),3级(树叶摇摆),3级(树叶摇摆),2级(清风),\N,\N,\N,\N,\N,\N,20221202
20221202,370700,119.161755,36.706774,山东省,潍坊市,\N,山东省潍坊市,PARTLY_CLOUDY_DAY,06:57,16:47,0.31,1,0,123,405.2,0,-0.06,4,-3.17,0,0,0,102415.39,102974.59,101934.59,190.1,196.8,236.42,11.76,20.3,3.05,0.24,0.37,0.15,39.02,53.35,20.9,40,55,25,适宜,1,极易发,4,湿冷,12,极冷,8,强,4,多云（白天）,无雨,无雨,无雨,多云,多云,晴,\N,\N,\N,南(S),南西南(SSW),西西南(WSW),2级(清风),4级(树枝摇动),1级(微风徐徐),\N,\N,\N,\N,\N,\N,20221202
20221202,530400,102.546543,24.352036,云南省,玉溪市,\N,云南省玉溪市,PARTLY_CLOUDY_DAY,07:37,18:21,0.44,0.94,0,154.2,640.5,0,14.92,21,10,0.02,0.13,0,80690.65,80915.26,80478.3,195.93,231.06,193.14,9.26,17.7,5.77,0.82,0.97,0.5,6.54,11.13,0.43,11,18,4,较不适宜,3,极易发,4,凉爽,6,凉爽,5,弱,2,多云（白天）,无雨,小雨,无雨,多云,多云,晴,\N,\N,\N,南西南(SSW),西南(SW),南西南(SSW),2级(清风),3级(树叶摇摆),1级(微风徐徐),\N,\N,\N,\N,\N,\N,20221202
20221202,370800,116.587098,35.414921,山东省,济宁市,\N,山东省济宁市,PARTLY_CLOUDY_DAY,07:04,17:01,0.35,1,0,133.9,426,0,1.9,5,-0.17,0,0,0,102381.77,102932.13,101892.13,178.24,191.75,134.42,13.28,21.01,5.1,0.26,0.46,0.18,48.63,59.93,34.09,57,65,43,较适宜,2,易发,3,湿冷,12,寒冷,7,弱,2,多云（白天）,无雨,无雨,无雨,多云,多云,晴,\N,\N,\N,南(S),南西南(SSW),东南(SE),3级(树叶摇摆),4级(树枝摇动),1级(微风徐徐),\N,\N,\N,\N,\N,\N,20221202
20221202,370900,117.087614,36.200252,山东省,泰安市,\N,山东省泰安市,PARTLY_CLOUDY_DAY,07:04,16:57,0.35,1,0,130.5,413.5,0,-1,4,-5,0,0,0,99676.96,100187.82,99205.36,179.16,196,161.82,10.38,21.28,0.63,0.27,0.41,0.15,46.31,51.12,40.22,55,65,38,较适宜,2,极易发,4,湿冷,12,极冷,8,弱,2,多云（白天）,无雨,无雨,无雨,多云,多云,晴,\N,\N,\N,南(S),南西南(SSW),南东南(SSE),2级(清风),4级(树枝摇动),0级(无风),\N,\N,\N,\N,\N,\N,20221202
20221202,371000,122.120419,37.513068,山东省,威海市,\N,山东省威海市,PARTLY_CLOUDY_DAY,06:47,16:33,0.59,1,0.02,110.6,354.3,0,2.24,4,-1,0,0.07,0,102614.04,102933.25,102293.25,244.4,326.91,223.98,16.16,23.71,9.4,0.58,0.64,0.53,20.6,27.01,12.4,28,38,12,较不适宜,3,易发,3,湿冷,12,极冷,8,最弱,1,多云（白天）,无雨,小雨,无雨,多云,多云,晴,\N,\N,\N,西西南(WSW),北西北(NNW),西南(SW),3级(树叶摇摆),4级(树枝摇动),2级(清风),\N,\N,\N,\N,\N,\N,20221202
20221202,371100,119.526888,35.416377,山东省,日照市,\N,山东省日照市,PARTLY_CLOUDY_DAY,06:53,16:49,0.46,1,0,136,433.4,0,1.64,5,-1,0,0,0,102627.48,103107.4,102227.4,232.47,219.44,42.88,11.51,18.37,0.87,0.35,0.44,0.27,34.13,50.25,17.55,25,31,15,适宜,1,易发,3,湿冷,12,寒冷,7,中等,3,多云（白天）,无雨,无雨,无雨,多云,多云,晴,\N,\N,\N,西南(SW),西南(SW),东北(NE),2级(清风),3级(树叶摇摆),0级(无风),\N,\N,\N,\N,\N,\N,20221202
20221202,371300,118.356448,35.104672,山东省,临沂市,\N,山东省临沂市,PARTLY_CLOUDY_DAY,06:56,16:54,0.39,1,0,140.3,448.8,0,0.36,3,-3,0,0,0,101956.86,102436.45,101556.45,194.27,202.51,19.39,8.55,14.18,1.5,0.3,0.54,0.17,39.56,52.97,20.48,38,43,29,较适宜,2,易发,3,湿冷,12,寒冷,7,强,4,多云（白天）,无雨,无雨,无雨,多云,多云,晴,\N,\N,\N,南西南(SSW),南西南(SSW),北东北(NNE),2级(清风),3级(树叶摇摆),1级(微风徐徐),\N,\N,\N,\N,\N,\N,20221202
20221202,371400,116.357464,37.434092,山东省,德州市,\N,山东省德州市,PARTLY_CLOUDY_DAY,07:10,16:56,0.28,1,0,110.1,397.3,0,-1,3,-5,0,0,0,102440.56,103107.98,101945.32,193.11,200.38,184.56,15.85,29,8.53,0.26,0.4,0.17,46.04,55.15,33.24,67,83,49,较适宜,2,极易发,4,湿冷,12,极冷,8,中等,3,多云（白天）,无雨,无雨,无雨,多云,多云,晴,\N,\N,\N,南西南(SSW),南西南(SSW),南(S),3级(树叶摇摆),\N,2级(清风),\N,\N,\N,\N,\N,\N,20221202
20221202,371500,115.985371,36.456703,山东省,聊城市,\N,山东省聊城市,PARTLY_CLOUDY_DAY,07:09,17:00,0.27,0.99,0,129.2,407.1,0,0.71,5,-3,0,0,0,102324.66,102959.19,101822.27,184.18,198.84,171.16,17.28,28.77,9.96,0.27,0.41,0.21,48.38,59.72,30.21,61,68,42,较适宜,2,极易发,4,湿冷,12,极冷,8,弱,2,多云（白天）,无雨,无雨,无雨,多云,多云,晴,\N,\N,\N,南(S),南西南(SSW),南(S),3级(树叶摇摆),4级(树枝摇动),2级(清风),\N,\N,\N,\N,\N,\N,20221202
20221202,371600,117.970703,37.38199,山东省,滨州市,\N,山东省滨州市,PARTLY_CLOUDY_DAY,07:04,16:50,0.28,1,0,105.3,395.4,0,-0.73,5,-5,0,0,0,102705.86,103280,102235.57,196.55,209.91,216.93,11.14,19.52,7.42,0.23,0.32,0.13,43.61,52.5,34.98,51,69,21,较适宜,2,极易发,4,湿冷,12,极冷,8,强,4,多云（白天）,无雨,无雨,无雨,多云,多云,晴,\N,\N,\N,南西南(SSW),南西南(SSW),西南(SW),2级(清风),3级(树叶摇摆),2级(清风),\N,\N,\N,\N,\N,\N,20221202
20221202,530500,99.161761,25.112046,云南省,保山市,\N,云南省保山市,CLEAR_DAY,07:52,18:33,0,0,0,204.6,693.3,0,11.71,21,3,0,0,0,81516.9,81770.31,81286.33,270.24,245.07,298.77,5,9.63,2.2,0.66,0.94,0.28,18.99,27.56,1.42,19,33,11,适宜,1,极易发,4,凉爽,6,凉爽,5,很强,5,晴（白天）,无雨,无雨,无雨,晴,晴,晴,\N,\N,\N,西(W),西西南(WSW),西西北(WNW),1级(微风徐徐),2级(清风),1级(微风徐徐),\N,\N,\N,\N,\N,\N,20221202
20221202,371700,115.480656,35.23375,山东省,菏泽市,\N,山东省菏泽市,PARTLY_CLOUDY_DAY,07:08,17:05,0.28,1,0,135.7,423,0,1.04,5,-3,0,0,0,102157.53,102713.81,101673.81,188.25,206.44,170.09,15.51,22.97,9,0.32,0.53,0.16,52.9,60,42.49,62,68,47,较适宜,2,极易发,4,湿冷,12,极冷,8,中等,3,多云（白天）,无雨,无雨,无雨,多云,多云,晴,\N,\N,\N,南(S),南西南(SSW),南(S),3级(树叶摇摆),4级(树枝摇动),2级(清风),\N,\N,\N,\N,\N,\N,20221202
20221202,410100,113.625368,34.746599,河南省,郑州市,\N,河南省郑州市,PARTLY_CLOUDY_DAY,07:15,17:14,0.41,1,0,132.9,404.6,0,1.1,6,-3,0,0,0,101078.39,101669.76,100630.85,196.11,190,202.21,11.32,17.82,7.51,0.27,0.41,0.18,50.93,56.34,41.75,66,77,61,较适宜,2,极易发,4,湿冷,12,寒冷,7,最弱,1,多云（白天）,无雨,无雨,无雨,多云,多云,晴,\N,\N,\N,南西南(SSW),南(S),南西南(SSW),2级(清风),3级(树叶摇摆),2级(清风),\N,\N,\N,\N,\N,\N,20221202
20221202,410200,114.307581,34.797239,河南省,开封市,\N,河南省开封市,PARTLY_CLOUDY_DAY,07:12,17:11,0.35,0.98,0,139.2,409.4,0,1.42,5,-1,0,0,0,101824.15,102418.43,101374.94,194.58,189.04,187.5,15.59,23.22,10.21,0.34,0.54,0.19,56.64,60,48.07,67,73,55,较适宜,2,易发,3,湿冷,12,极冷,8,弱,2,多云（白天）,无雨,无雨,无雨,多云,多云,晴,\N,\N,\N,南西南(SSW),南(S),南(S),3级(树叶摇摆),4级(树枝摇动),2级(清风),\N,\N,\N,\N,\N,\N,20221202
20221202,410300,112.45404,34.619682,河南省,洛阳市,\N,河南省洛阳市,PARTLY_CLOUDY_DAY,07:19,17:19,0.32,1,0,132.3,416.2,0,1.04,5,-2,0,0,0,99635.2,100216.04,99224.78,185.39,219.9,192.5,5.45,9.07,1.11,0.32,0.47,0.24,43.22,48.08,36.88,67,85,59,较适宜,2,易发,3,湿冷,12,寒冷,7,弱,2,多云（白天）,无雨,无雨,无雨,多云,多云,晴,\N,\N,\N,南(S),西南(SW),南西南(SSW),1级(微风徐徐),2级(清风),1级(微风徐徐),\N,\N,\N,\N,\N,\N,20221202
20221202,410400,113.192661,33.766169,河南省,平顶山市,\N,河南省平顶山市,PARTLY_CLOUDY_DAY,07:14,17:18,0.34,1,0,134.5,375.8,0,1.62,6,-1,0,0,0,101128.12,101719.59,100683.57,187.4,199.12,164.12,10.46,18.97,3.69,0.35,0.5,0.21,50.94,59.85,40.52,32,61,18,较适宜,2,易发,3,湿冷,12,寒冷,7,最弱,1,多云（白天）,无雨,无雨,无雨,多云,多云,晴,\N,\N,\N,南(S),南西南(SSW),南东南(SSE),2级(清风),3级(树叶摇摆),1级(微风徐徐),\N,\N,\N,\N,\N,\N,20221202
20221202,530600,103.717465,27.338257,云南省,昭通市,\N,云南省昭通市,PARTLY_CLOUDY_DAY,07:38,18:10,0.34,0.86,0,180.7,619.6,0,8.4,19,-0.17,0,0,0,79035.89,79445.55,78696.49,90.17,50.08,109.51,6.17,10.31,1.38,0.74,0.89,0.51,10.1,26.16,0.1,6,10,4,适宜,1,极易发,4,很冷,8,冷,6,强,4,多云（白天）,无雨,无雨,无雨,多云,多云,晴,\N,\N,\N,东(E),东北(NE),东东南(ESE),2级(清风),2级(清风),1级(微风徐徐),\N,\N,\N,\N,\N,\N,20221202
20221202,410500,114.392392,36.097577,河南省,安阳市,\N,河南省安阳市,PARTLY_CLOUDY_DAY,07:15,17:08,0.26,1,0,130.1,405,0,0.33,4,-5,0,0,0,101415.98,102121.45,100862.44,187.19,190.93,211.89,14.77,26.16,5.49,0.31,0.41,0.17,55.12,58.9,48.41,72,83,63,较适宜,2,极易发,4,湿冷,12,寒冷,7,中等,3,多云（白天）,无雨,无雨,无雨,多云,多云,晴,\N,\N,\N,南(S),南(S),南西南(SSW),3级(树叶摇摆),4级(树枝摇动),1级(微风徐徐),\N,\N,\N,\N,\N,\N,20221202
20221202,410600,114.297272,35.747225,河南省,鹤壁市,\N,河南省鹤壁市,LIGHT_HAZE,07:14,17:09,0.27,1,0,131,397.6,0,0.73,4,-2,0,0,0,101126.57,101773.77,100638.81,200.24,199.27,204.72,16.9,29.76,8.42,0.31,0.42,0.17,51.88,57.02,42.51,76,78,69,较适宜,2,易发,3,湿冷,12,极冷,8,弱,2,轻度雾霾,无雨,无雨,无雨,多云,多云,晴,\N,\N,\N,南西南(SSW),南西南(SSW),南西南(SSW),3级(树叶摇摆),\N,2级(清风),\N,\N,\N,\N,\N,\N,20221202
20221202,410700,113.9268,35.303004,河南省,新乡市,\N,河南省新乡市,PARTLY_CLOUDY_DAY,07:15,17:11,0.31,0.99,0,128.3,403.1,0,0.9,5,-1.33,0,0,0,101439.25,102062.84,100942.84,208.24,219.2,201.05,10.95,21.32,1.92,0.32,0.43,0.18,50.47,57.82,43.48,74,86,45,较适宜,2,易发,3,湿冷,12,寒冷,7,中等,3,多云（白天）,无雨,无雨,无雨,多云,多云,晴,\N,\N,\N,南西南(SSW),西南(SW),南西南(SSW),2级(清风),4级(树枝摇动),1级(微风徐徐),\N,\N,\N,\N,\N,\N,20221202
20221202,410800,113.241823,35.215892,河南省,焦作市,\N,河南省焦作市,PARTLY_CLOUDY_DAY,07:17,17:14,0.36,1,0,127.3,399.5,0,0.92,5,-2,0,0,0,99697.78,100294.14,99245.84,242.21,233.03,56.9,7.7,19.28,1.02,0.28,0.35,0.17,49.66,54.16,43.13,67,85,59,较适宜,2,易发,3,湿冷,12,寒冷,7,中等,3,多云（白天）,无雨,无雨,无雨,多云,多云,晴,\N,\N,\N,西西南(WSW),西南(SW),东东北(ENE),2级(清风),3级(树叶摇摆),1级(微风徐徐),\N,\N,\N,\N,\N,\N,20221202
20221202,410900,115.029215,35.761829,河南省,濮阳市,\N,河南省濮阳市,PARTLY_CLOUDY_DAY,07:11,17:06,0.33,1,0,131.2,396.2,0,0.79,4,-2,0,0,0,102048.51,102652.69,101529.35,189.72,201,171.88,17.7,29.2,9.44,0.32,0.48,0.18,53.38,60,45.71,67,75,50,较适宜,2,易发,3,湿冷,12,极冷,8,弱,2,多云（白天）,无雨,无雨,无雨,多云,多云,晴,\N,\N,\N,南(S),南西南(SSW),南(S),3级(树叶摇摆),\N,2级(清风),\N,\N,\N,\N,\N,\N,20221202
20221202,411000,113.85264,34.035506,河南省,许昌市,\N,河南省许昌市,PARTLY_CLOUDY_DAY,07:12,17:15,0.33,1,0,136.1,394.3,0,1.46,6,-2,0,0,0,101819.82,102382.42,101370.6,189.03,194.95,172.51,12.59,18.33,8.23,0.39,0.54,0.2,54.72,60,34.4,45,59,20,较适宜,2,极易发,4,湿冷,12,寒冷,7,最弱,1,多云（白天）,无雨,无雨,无雨,多云,多云,晴,\N,\N,\N,南(S),南西南(SSW),南(S),3级(树叶摇摆),3级(树叶摇摆),2级(清风),\N,\N,\N,\N,\N,\N,20221202
20221202,411100,114.016539,33.581412,河南省,漯河市,\N,河南省漯河市,PARTLY_CLOUDY_DAY,07:10,17:15,0.27,0.98,0,139.4,405.9,0,2.48,5,-1,0,0,0,102067.63,102594.91,101610.58,176.73,174.53,186.21,12.17,17.29,8.8,0.4,0.56,0.23,50.35,58.96,26.53,35,47,20,较适宜,2,易发,3,湿冷,12,寒冷,7,弱,2,多云（白天）,无雨,无雨,无雨,多云,多云,晴,\N,\N,\N,南(S),南(S),南(S),3级(树叶摇摆),3级(树叶摇摆),2级(清风),\N,\N,\N,\N,\N,\N,20221202
20221202,411200,111.200135,34.772493,河南省,三门峡市,\N,河南省三门峡市,PARTLY_CLOUDY_DAY,07:24,17:24,0.48,1,0,128.2,427.2,0,1.67,5,-2,0,0,0,95600.73,96143.48,95263.48,66.83,100.94,331.32,5.46,9.51,0.48,0.29,0.34,0.24,34.74,38.55,29.75,47,61,33,较不适宜,3,易发,3,湿冷,12,寒冷,7,弱,2,多云（白天）,无雨,无雨,无雨,多云,多云,晴,\N,\N,\N,东东北(ENE),东(E),北西北(NNW),1级(微风徐徐),2级(清风),0级(无风),\N,\N,\N,\N,\N,\N,20221202
20221202,530700,100.22775,26.855047,云南省,丽江市,\N,云南省丽江市,CLEAR_DAY,07:51,18:25,0,0,0,203.7,681.3,0,11.5,18,0,0,0,0,73071.91,73278.72,72869.34,273.2,240.58,276.11,8.66,11.09,5.84,0.48,0.77,0.19,35.84,48.88,23.47,22,37,14,适宜,1,极易发,4,很冷,8,凉爽,5,很强,5,晴（白天）,无雨,无雨,无雨,晴,晴,晴,\N,\N,\N,西(W),西西南(WSW),西(W),2级(清风),2级(清风),1级(微风徐徐),\N,\N,\N,\N,\N,\N,20221202
20221202,411300,112.528321,32.990833,河南省,南阳市,\N,河南省南阳市,CLEAR_DAY,07:15,17:23,0.09,0.62,0,150.9,452.3,0,2.19,6,-1,0,0,0,101087.46,101631.8,100671.8,211.73,222.4,212.21,8.38,14.51,1.81,0.36,0.5,0.25,45.12,50.42,33.72,33,43,18,较适宜,2,易发,3,湿冷,12,寒冷,7,强,4,晴（白天）,无雨,无雨,无雨,晴,多云,晴,\N,\N,\N,南西南(SSW),西南(SW),南西南(SSW),2级(清风),3级(树叶摇摆),1级(微风徐徐),\N,\N,\N,\N,\N,\N,20221202
20221202,411400,115.65637,34.414172,河南省,商丘市,\N,河南省商丘市,PARTLY_CLOUDY_DAY,07:06,17:07,0.39,1,0,134.3,441,0,0.48,5,-2.5,0,0,0,102228.46,102764.64,101804.64,183.94,194.68,182.95,13.46,21.72,7.8,0.4,0.55,0.2,51.67,60,38.86,53,59,45,较适宜,2,极易发,4,湿冷,12,寒冷,7,强,4,多云（白天）,无雨,无雨,无雨,多云,多云,晴,\N,\N,\N,南(S),南西南(SSW),南(S),3级(树叶摇摆),4级(树枝摇动),2级(清风),\N,\N,\N,\N,\N,\N,20221202
20221202,411500,114.091023,32.146983,河南省,信阳市,\N,河南省信阳市,CLEAR_DAY,07:07,17:18,0.04,0.3,0,158.3,475.9,0,2.56,6,0,0,0,0,101243.72,101774.04,100847.01,171.11,208.85,107.45,5.45,8.99,2.16,0.38,0.5,0.19,25.26,33.76,13.37,37,40,33,较适宜,2,易发,3,湿冷,12,寒冷,7,强,4,晴（白天）,无雨,无雨,无雨,晴,多云,晴,\N,\N,\N,南(S),南西南(SSW),东东南(ESE),1级(微风徐徐),2级(清风),1级(微风徐徐),\N,\N,\N,\N,\N,\N,20221202
20221202,530800,100.966512,22.825065,云南省,普洱市,\N,云南省普洱市,PARTLY_CLOUDY_DAY,07:40,18:30,0.51,0.87,0.05,126.5,394.1,0,16.5,18,14,0.01,0.14,0,85904.88,86135.15,85724.44,149.05,138.11,179.92,4.07,7.53,1.27,0.93,0.99,0.78,6.95,10.9,0.18,6,12,3,较不适宜,3,易发,3,凉爽,6,温暖,4,弱,2,多云（白天）,无雨,小雨,无雨,多云,多云,晴,\N,\N,\N,南东南(SSE),东南(SE),南(S),1级(微风徐徐),2级(清风),1级(微风徐徐),\N,\N,\N,\N,\N,\N,20221202
20221202,411600,114.696951,33.626149,河南省,周口市,\N,河南省周口市,PARTLY_CLOUDY_DAY,07:08,17:12,0.35,1,0,138.9,421.9,0,1.65,5,-1,0,0,0,102258.64,102822.66,101862.66,180.43,185.56,180.49,11.62,16.85,7.47,0.41,0.54,0.26,48.47,56.5,30.74,35,41,22,较适宜,2,易发,3,湿冷,12,寒冷,7,弱,2,多云（白天）,无雨,无雨,无雨,多云,多云,晴,\N,\N,\N,南(S),南(S),南(S),2级(清风),3级(树叶摇摆),2级(清风),\N,\N,\N,\N,\N,\N,20221202
20221202,411700,114.022298,33.011529,河南省,驻马店市,\N,河南省驻马店市,CLEAR_DAY,07:09,17:17,0.18,0.97,0,152.6,463.8,0,2.21,6,-1,0,0,0,101813.48,102365.43,101405.43,170.26,171.93,202.62,9.8,12.23,5.27,0.44,0.64,0.24,41.63,47.7,21.87,29,46,16,较适宜,2,易发,3,湿冷,12,寒冷,7,强,4,晴（白天）,无雨,无雨,无雨,晴,多云,晴,\N,\N,\N,南(S),南(S),南西南(SSW),2级(清风),3级(树叶摇摆),1级(微风徐徐),\N,\N,\N,\N,\N,\N,20221202
20221202,420100,114.305392,30.593098,湖北省,武汉市,\N,湖北省武汉市,PARTLY_CLOUDY_DAY,07:02,17:21,0.44,1,0.05,109.2,371.5,0,2.35,7,-1,0.03,0.17,0,102531.47,102989.79,102166.6,127.24,149.49,123.03,4.23,7.38,0.73,0.58,0.68,0.37,14.78,20.57,9.36,24,26,20,较不适宜,3,极易发,4,湿冷,12,寒冷,7,最弱,1,多云（白天）,无雨,小雨,无雨,多云,多云,晴,\N,\N,\N,东南(SE),南东南(SSE),东东南(ESE),1级(微风徐徐),2级(清风),0级(无风),\N,\N,\N,\N,\N,\N,20221202
20221202,420200,115.03852,30.199652,湖北省,黄石市,\N,湖北省黄石市,LIGHT_RAIN,06:58,17:19,0.5,1,0.05,155.8,468.3,0,4.31,7,0,0.04,0.21,0,102067.13,102492.39,101760.07,146.17,136.39,157.32,7.13,9.93,3.62,0.8,0.97,0.61,12.96,17.16,8.88,20,24,16,较不适宜,3,易发,3,湿冷,12,寒冷,7,中等,3,小雨,小雨,小雨,无雨,多云,多云,晴,\N,\N,\N,东南(SE),东南(SE),南东南(SSE),2级(清风),2级(清风),1级(微风徐徐),\N,\N,\N,\N,\N,\N,20221202
20221202,420300,110.79799,32.629397,湖北省,十堰市,\N,湖北省十堰市,CLEAR_DAY,07:21,17:30,0.13,0.82,0,147.2,433.1,0,2.81,7,0,0,0,0,96906.16,97402.61,96545.85,69.82,15.5,76.16,4.1,5.73,1.42,0.62,0.73,0.49,23.99,31.35,18.36,30,35,28,适宜,1,易发,3,湿冷,12,寒冷,7,中等,3,晴（白天）,无雨,无雨,无雨,晴,多云,晴,\N,\N,\N,东东北(ENE),北东北(NNE),东东北(ENE),1级(微风徐徐),1级(微风徐徐),1级(微风徐徐),\N,\N,\N,\N,\N,\N,20221202
20221202,420500,111.286471,30.691967,湖北省,宜昌市,\N,湖北省宜昌市,CLEAR_DAY,07:15,17:33,0.11,0.54,0.04,158.6,463.9,0,3.67,6,0,0,0,0,99882.02,100438.14,99475.43,145.69,126.19,198.29,3.48,5.74,0.64,0.61,0.79,0.45,23.49,28.14,18.46,31,42,26,较适宜,2,易发,3,湿冷,12,寒冷,7,强,4,晴（白天）,无雨,无雨,无雨,晴,多云,晴,\N,\N,\N,东南(SE),东南(SE),南西南(SSW),1级(微风徐徐),1级(微风徐徐),0级(无风),\N,\N,\N,\N,\N,\N,20221202
20221202,420600,112.122414,32.008986,湖北省,襄阳市,\N,湖北省襄阳市,CLEAR_DAY,07:14,17:26,0.03,0.3,0,155,456.9,0,3.98,6,0,0,0,0,101555.05,102116.11,101156.11,157.65,163.69,147.75,9.01,13,5.2,0.35,0.42,0.29,38.32,46.97,28.68,44,51,40,较适宜,2,易发,3,湿冷,12,寒冷,7,强,4,晴（白天）,无雨,无雨,无雨,晴,多云,晴,\N,\N,\N,南东南(SSE),南东南(SSE),南东南(SSE),2级(清风),3级(树叶摇摆),1级(微风徐徐),\N,\N,\N,\N,\N,\N,20221202
20221202,420700,114.894843,30.39194,湖北省,鄂州市,\N,湖北省鄂州市,LIGHT_RAIN,06:59,17:19,0.52,1,0.05,140.9,424.7,0,4.17,6,1,0.04,0.26,0,102457.42,102884.42,102104.46,134.47,125.18,125.44,7.49,10.38,4.03,0.75,0.88,0.57,13.62,17.89,9.21,20,23,17,较不适宜,3,易发,3,湿冷,12,寒冷,7,弱,2,小雨,小雨,\N,无雨,多云,多云,晴,\N,\N,\N,东南(SE),东南(SE),东南(SE),2级(清风),2级(清风),1级(微风徐徐),\N,\N,\N,\N,\N,\N,20221202
20221202,530900,100.079583,23.877573,云南省,临沧市,\N,云南省临沧市,CLEAR_DAY,07:45,18:31,0.04,0.11,0,202,667.5,0,15.94,23,8,0,0,0,81787.62,82018.3,81559.04,258.3,261.26,271.59,4.64,11.36,1.57,0.74,0.95,0.35,15.78,24.16,8.61,22,36,12,适宜,1,极易发,4,凉爽,6,温暖,4,强,4,晴（白天）,无雨,无雨,无雨,晴,晴,晴,\N,\N,\N,西西南(WSW),西(W),西(W),1级(微风徐徐),2级(清风),1级(微风徐徐),\N,\N,\N,\N,\N,\N,20221202
20221202,420800,112.199265,31.035423,湖北省,荆门市,\N,湖北省荆门市,CLEAR_DAY,07:12,17:28,0.06,0.67,0,161.9,475.2,0,3.52,6,0,0,0,0,101359.07,101868.98,100963.71,170.49,172.34,198.74,7.54,10.99,2.04,0.37,0.5,0.24,27.16,36.24,16.97,22,37,15,较适宜,2,易发,3,湿冷,12,寒冷,7,强,4,晴（白天）,无雨,无雨,无雨,晴,多云,晴,\N,\N,\N,南(S),南(S),南西南(SSW),2级(清风),2级(清风),1级(微风徐徐),\N,\N,\N,\N,\N,\N,20221202
20221202,420900,113.916902,30.924568,湖北省,孝感市,\N,湖北省孝感市,CLEAR_DAY,07:05,17:22,0.17,1,0.02,156.5,460.2,0,3.21,7,0,0.01,0.14,0,102464.58,102946.84,102082.96,142.84,160.98,179.43,5.98,9.1,2.76,0.48,0.71,0.36,15.99,23.65,9.15,26,30,22,较不适宜,3,易发,3,湿冷,12,寒冷,7,强,4,晴（白天）,无雨,小雨,无雨,晴,多云,晴,\N,\N,\N,东南(SE),南东南(SSE),南(S),1级(微风徐徐),2级(清风),1级(微风徐徐),\N,\N,\N,\N,\N,\N,20221202
20221202,421000,112.239741,30.335165,湖北省,荆州市,\N,湖北省荆州市,CLEAR_DAY,07:10,17:30,0.2,1,0,163.5,477.9,0,3.4,7,-1,0,0,0,102402.33,102929.46,101969.46,160.75,137.02,162.51,6.51,9.1,3.08,0.4,0.63,0.2,19.93,28.73,10.27,17,28,13,较适宜,2,极易发,4,湿冷,12,寒冷,7,强,4,晴（白天）,无雨,无雨,无雨,多云,多云,晴,\N,\N,\N,南东南(SSE),东南(SE),南东南(SSE),2级(清风),2级(清风),1级(微风徐徐),\N,\N,\N,\N,\N,\N,20221202
20221202,532300,101.528068,25.045532,云南省,楚雄彝族自治州,\N,云南省楚雄彝族自治州,CLEAR_DAY,07:42,18:23,0.01,0.05,0,200.9,663.8,0,15.65,23,9,0,0,0,80452.77,80685.92,80242.25,237.86,244.19,235.67,9.28,24.95,3.09,0.68,0.95,0.28,10.72,21.5,0.04,22,38,10,适宜,1,极易发,4,温暖,4,温暖,4,很强,5,晴（白天）,无雨,无雨,无雨,晴,晴,晴,\N,\N,\N,西西南(WSW),西西南(WSW),西南(SW),2级(清风),4级(树枝摇动),1级(微风徐徐),\N,\N,\N,\N,\N,\N,20221202
20221202,421100,114.872316,30.453905,湖北省,黄冈市,\N,湖北省黄冈市,LIGHT_RAIN,07:00,17:19,0.52,1,0.05,134.5,422.4,0,4.27,6.33,1,0.04,0.22,0,102524.89,102956.92,102164.14,133.24,121.64,127.54,7.48,10.86,4.12,0.74,0.86,0.56,14.08,18.52,9.49,22,25,18,较不适宜,3,易发,3,湿冷,12,寒冷,7,最弱,1,小雨,小雨,小雨,无雨,多云,多云,晴,\N,\N,\N,东南(SE),东东南(ESE),东南(SE),2级(清风),2级(清风),1级(微风徐徐),\N,\N,\N,\N,\N,\N,20221202
20221202,421200,114.322492,29.841443,湖北省,咸宁市,\N,湖北省咸宁市,PARTLY_CLOUDY_DAY,07:01,17:22,0.64,1,0.05,109.1,318.9,0,2,7,-1,0.01,0.07,0,101413.08,101859.05,101050.56,139.04,149.21,78.61,2.9,6.11,0.27,0.8,0.96,0.64,10.07,13.08,5.51,17,21,13,较不适宜,3,极易发,4,湿冷,12,寒冷,7,最弱,1,多云（白天）,无雨,小雨,无雨,多云,多云,晴,\N,\N,\N,东南(SE),南东南(SSE),东东北(ENE),1级(微风徐徐),2级(清风),0级(无风),\N,\N,\N,\N,\N,\N,20221202
20221202,421300,113.382458,31.690215,湖北省,随州市,\N,湖北省随州市,CLEAR_DAY,07:08,17:22,0.02,0.3,0,159.7,476,0,2.19,7,-3,0,0,0,101451.9,101970.92,101062.3,149.28,140.72,61.71,6.41,9.99,1.24,0.35,0.47,0.2,27.03,37.97,12.54,27,37,12,适宜,1,极易发,4,湿冷,12,寒冷,7,强,4,晴（白天）,无雨,无雨,无雨,晴,多云,晴,\N,\N,\N,南东南(SSE),东南(SE),东东北(ENE),2级(清风),2级(清风),1级(微风徐徐),\N,\N,\N,\N,\N,\N,20221202
